[
  {"the_dated":"July 22 1991","the_city":"Oxford","the_country":"England","the_venue":"The Holly Bush Inn","lat":51.7520209,"lon":-1.2577263},
  {"the_date":"April 24 1992","the_city":"London","the_country":"UK","the_venue":"The Venue","lat":51.5073509,"lon":-0.1277583},
  {"the_date":"April 28 1992","the_city":"Newcastle upon Tyne","the_country":"England","the_venue":"Riverside","lat":54.978252,"lon":-1.61778},
  {"the_date":"May 01 1992","the_city":"Barrow-in-Furness","the_country":"England","the_venue":"Forum","lat":54.108967,"lon":-3.218894},
  {"the_date":"May 03 1992","the_city":"Birmingham","the_country":"England","the_venue":"Barrel Organ","lat":52.48624299999999,"lon":-1.890401},
  {"the_date":"May 07 1992","the_city":"Middlesbrough","the_country":"England","the_venue":"Teesside Polytechnic University","lat":54.574227,"lon":-1.234956},
  {"the_date":"May 08 1992","the_city":"Glasgow","the_country":"Scotland","the_venue":"King Tut's Wah Wah Hut","lat":55.864237,"lon":-4.251806},
  {"the_date":"May 09 1992","the_city":"Coventry","the_country":"England","the_venue":"Warwick University","lat":52.406822,"lon":-1.519693},
  {"the_date":"May 12 1992","the_city":"Windsor","the_country":"England","the_venue":"Old Trout","lat":51.4817279,"lon":-0.613576},
  {"the_date":"May 13 1992","the_city":"London","the_country":"England","the_venue":"Islington Powerhaus","lat":51.5073509,"lon":-0.1277583},
  {"the_date":"May 15 1992","the_city":"Leeds","the_country":"England","the_venue":"Duchess of York","lat":53.8007554,"lon":-1.5490774},
  {"the_date":"May 16 1992","the_city":"Brighton","the_country":"England","the_venue":"Sussex University","lat":50.82253000000001,"lon":-0.137163},
  {"the_date":"May 18 1992","the_city":"Stoke-On-Trent","the_country":"England","the_venue":"Stoke Wheatsheaf","lat":53.002668,"lon":-2.179404},
  {"the_date":"May 19 1992","the_city":"London","the_country":"England","the_venue":"Central London Polytechnic University","lat":51.5073509,"lon":-0.1277583},
  {"the_date":"May 20 1992","the_city":"Portsmouth","the_country":"England","the_venue":"Rip Club","lat":50.816667,"lon":-1.083333},
  {"the_date":"May 22 1992","the_city":"Reading","the_country":"England","the_venue":"After Dark","lat":51.4542645,"lon":-0.9781303},
  {"the_date":"May 23 1992","the_city":"Middlesex","the_country":"England","the_venue":"Middlesex Polytechnic University","lat":51.520998,"lon":-0.4160572},
  {"the_date":"May 27 1992","the_city":"Nottingham","the_country":"England","the_venue":"Imperial","lat":52.95478319999999,"lon":-1.1581086},
  {"the_date":"May 28 1992","the_city":"Harlesden","the_country":"England","the_venue":"Mean Fiddler","lat":51.534933,"lon":-0.247334},
  {"the_date":"May 29 1992","the_city":"Bath","the_country":"England","the_venue":"Moles","lat":51.375801,"lon":-2.3599039},
  {"the_date":"May 30 1992","the_city":"Leicester","the_country":"England","the_venue":"Princess Charlotte","lat":52.6368778,"lon":-1.1397592},
  {"the_date":"May 31 1992","the_city":"Hull","the_country":"England","the_venue":"Adelphi","lat":53.7456709,"lon":-0.3367413},
  {"the_date":"June 04 1992","the_city":"Loughborough","the_country":"England","the_venue":"Loughborough University","lat":52.772099,"lon":-1.206166},
  {"the_date":"June 05 1992","the_city":"Dudley","the_country":"England","the_venue":"JB's","lat":52.512255,"lon":-2.081112},
  {"the_date":"June 06 1992","the_city":"Oxford","the_country":"England","the_venue":"The Venue","lat":51.7520209,"lon":-1.2577263},
  {"the_date":"June 08 1992","the_city":"Derby","the_country":"England","the_venue":"Wherehouse","lat":52.9225301,"lon":-1.4746186},
  {"the_date":"June 09 1992","the_city":"Manchester","the_country":"England","the_venue":"Boardwalk","lat":53.4807593,"lon":-2.2426305},
  {"the_date":"June 10 1992","the_city":"Buckley","the_country":"England","the_venue":"Tivoli","lat":53.17005,"lon":-3.0814879},
  {"the_date":"June 11 1992","the_city":"Tring","the_country":"England","the_venue":"Cotton Club","lat":51.79607799999999,"lon":-0.655879},
  {"the_date":"June 22 1992","the_city":"London","the_country":"England","the_venue":"BBC Evening Session","lat":51.5073509,"lon":-0.1277583},
  {"the_date":"August 29 1992","the_city":"Bath","the_country":"England","the_venue":"Moles","lat":51.375801,"lon":-2.3599039},
  {"the_date":"September 01 1992","the_city":"London","the_country":"England","the_venue":"Camden Underworld","lat":51.5073509,"lon":-0.1277583},
  {"the_date":"September 05 1992","the_city":"Oxford","the_country":"England","the_venue":"The Venue","lat":51.7520209,"lon":-1.2577263},
  {"the_date":"September 08 1992","the_city":"Cardiff","the_country":"England","the_venue":"University","lat":51.48158100000001,"lon":-3.17909},
  {"the_date":"September 11 1992","the_city":"London","the_country":"England","the_venue":"Mean Fiddler","lat":51.5073509,"lon":-0.1277583},
  {"the_date":"September 12 1992","the_city":"Manchester","the_country":"England","the_venue":"Manchester University","lat":53.4807593,"lon":-2.2426305},
  {"the_date":"September 13 1992","the_city":"London","the_country":"England","the_venue":"Town and Country","lat":51.5073509,"lon":-0.1277583},
  {"the_date":"September 16 1992","the_city":"Manchester","the_country":"England","the_venue":"Boardwalk","lat":53.4807593,"lon":-2.2426305},
  {"the_date":"September 19 1992","the_city":"Oxford","the_country":"England","the_venue":"The Venue","lat":51.7520209,"lon":-1.2577263},
  {"the_date":"September 20 1992","the_city":"Brighton","the_country":"England","the_venue":"East Wing Centre","lat":50.82253000000001,"lon":-0.137163},
  {"the_date":"September 21 1992","the_city":"Norwich","the_country":"England","the_venue":"Waterfront","lat":52.6308859,"lon":1.297355},
  {"the_date":"September 22 1992","the_city":"Northampton","the_country":"England","the_venue":"Irish Centre","lat":52.240477,"lon":-0.9026560000000001},
  {"the_date":"September 24 1992","the_city":"Liverpool","the_country":"England","the_venue":"Krazy House","lat":53.4083714,"lon":-2.9915726},
  {"the_date":"September 25 1992","the_city":"Edinburgh","the_country":"Scotland","the_venue":"The Venue","lat":55.953252,"lon":-3.188267},
  {"the_date":"September 26 1992","the_city":"Glasgow","the_country":"Scotland","the_venue":"King Tut's Wah Wah Hut","lat":55.864237,"lon":-4.251806},
  {"the_date":"September 28 1992","the_city":"Newcastle","the_country":"England","the_venue":"Riverside","lat":54.978252,"lon":-1.61778},
  {"the_date":"September 29 1992","the_city":"Leeds","the_country":"England","the_venue":"Leeds Polytechinc University","lat":53.8007554,"lon":-1.5490774},
  {"the_date":"October 04 1992","the_city":"Sheffield","the_country":"England","the_venue":"Sheffield University","lat":53.38112899999999,"lon":-1.470085},
  {"the_date":"October 05 1992","the_city":"Derby","the_country":"England","the_venue":"Wherehouse","lat":52.9225301,"lon":-1.4746186},
  {"the_date":"October 06 1992","the_city":"Peterborough","the_country":"England","the_venue":"Arena","lat":52.56949849999999,"lon":-0.2405299},
  {"the_date":"October 07 1992","the_city":"Birmingham","the_country":"England","the_venue":"Edwards No 8","lat":52.48624299999999,"lon":-1.890401},
  {"the_date":"October 08 1992","the_city":"Rayleigh, Essex","the_country":"England","the_venue":"Pink Toothbrush","lat":51.586385,"lon":0.6048709999999999},
  {"the_date":"October 09 1992","the_city":"London","the_country":"England","the_venue":"Astoria","lat":51.5073509,"lon":-0.1277583},
  {"the_date":"October 10 1992","the_city":"Bristol","the_country":"England","the_venue":"Bristol University","lat":51.454513,"lon":-2.58791},
  {"the_date":"October 12 1992","the_city":"Canterbury","the_country":"England","the_venue":"Canterbury University","lat":51.280233,"lon":1.0789089},
  {"the_date":"October 15 1992","the_city":"Reading","the_country":"England","the_venue":"21 South Street","lat":51.4542645,"lon":-0.9781303},
  {"the_date":"October 17 1992","the_city":"Cambridge","the_country":"England","the_venue":"Junction","lat":52.205337,"lon":0.121817},
  {"the_date":"October 21 1992","the_city":"Stoke","the_country":"England","the_venue":"Wheatsheaf","lat":53.002668,"lon":-2.179404},
  {"the_date":"October 22 1992","the_city":"Chelmsford","the_country":"England","the_venue":"Y Club","lat":51.7355868,"lon":0.4685497},
  {"the_date":"October 23 1992","the_city":"Middlesex","the_country":"England","the_venue":"Middlesex University","lat":51.520998,"lon":-0.4160572},
  {"the_date":"October 24 1992","the_city":"Brighton","the_country":"England","the_venue":"Sussex University","lat":50.82253000000001,"lon":-0.137163},
  {"the_date":"October 26 1992","the_city":"Egham","the_country":"England","the_venue":"Holloways","lat":51.428825,"lon":-0.547876},
  {"the_date":"October 27 1992","the_city":"Leeds","the_country":"England","the_venue":"Duchess of York","lat":53.8007554,"lon":-1.5490774},
  {"the_date":"October 28 1992","the_city":"Bristol","the_country":"England","the_venue":"Fleece and Firkin","lat":51.454513,"lon":-2.58791},
  {"the_date":"October 29 1992","the_city":"Chesham","the_country":"England","the_venue":"Joy Club","lat":51.709401,"lon":-0.612333},
  {"the_date":"October 30 1992","the_city":"Edinburgh","the_country":"Scotland","the_venue":"The Venue","lat":55.953252,"lon":-3.188267},
  {"the_date":"October 31 1992","the_city":"Glasgow","the_country":"Scotland","the_venue":"King Tut's Wah Wah Hut","lat":55.864237,"lon":-4.251806},
  {"the_date":"November 01 1992","the_city":"Guildford","the_country":"England","the_venue":"Surrey University","lat":51.23622,"lon":-0.570409},
  {"the_date":"November 02 1992","the_city":"Sunderland","the_country":"England","the_venue":"Polytechnic University","lat":54.906869,"lon":-1.383801},
  {"the_date":"November 03 1992","the_city":"Manchester","the_country":"England","the_venue":"Manchester University","lat":53.4807593,"lon":-2.2426305},
  {"the_date":"November 04 1992","the_city":"London","the_country":"England","the_venue":"Paradise Club","lat":51.5073509,"lon":-0.1277583},
  {"the_date":"November 05 1992","the_city":"Hull","the_country":"England","the_venue":"Adelphi","lat":53.7456709,"lon":-0.3367413},
  {"the_date":"November 07 1992","the_city":"Leicester","the_country":"England","the_venue":"Leicester University","lat":52.6368778,"lon":-1.1397592},
  {"the_date":"November 08 1992","the_city":"Nottingham","the_country":"England","the_venue":"Trent Polytechnic University","lat":52.95478319999999,"lon":-1.1581086},
  {"the_date":"November 09 1992","the_city":"Wolverhampton","the_country":"England","the_venue":"Wulfren Hall","lat":52.586973,"lon":-2.12882},
  {"the_date":"November 10 1992","the_city":"Bath","the_country":"England","the_venue":"Moles","lat":51.375801,"lon":-2.3599039},
  {"the_date":"November 11 1992","the_city":"Huddersfield","the_country":"England","the_venue":"Huddersfield University","lat":53.645792,"lon":-1.785035},
  {"the_date":"November 12 1992","the_city":"Newcastle-under-Lyme","the_country":"England","the_venue":"Keele University","lat":53.013208,"lon":-2.2273002},
  {"the_date":"November 13 1992","the_city":"Cambridge","the_country":"England","the_venue":"Junction","lat":52.205337,"lon":0.121817},
  {"the_date":"November 14 1992","the_city":"Coventry","the_country":"England","the_venue":"Warwick University","lat":52.406822,"lon":-1.519693},
  {"the_date":"November 17 1992","the_city":"Canterbury","the_country":"England","the_venue":"Kent University","lat":51.280233,"lon":1.0789089},
  {"the_date":"November 18 1992","the_city":"Plymouth","the_country":"England","the_venue":"Warehouse","lat":50.3754565,"lon":-4.1426565},
  {"the_date":"November 19 1992","the_city":"Chesham","the_country":"England","the_venue":"Joy","lat":51.709401,"lon":-0.612333},
  {"the_date":"November 21 1992","the_city":"Brighton","the_country":"England","the_venue":"Sussex University","lat":50.82253000000001,"lon":-0.137163},
  {"the_date":"November 22 1992","the_city":"Cardiff","the_country":"Wales","the_venue":"Cardiff University","lat":51.48158100000001,"lon":-3.17909},
  {"the_date":"November 29 1992","the_city":"Hull","the_country":"England","the_venue":"Tower Ballroom","lat":53.7456709,"lon":-0.3367413},
  {"the_date":"January 13 1993","the_city":"Egham","the_country":"England","the_venue":"Royal Holloway","lat":51.428825,"lon":-0.547876},
  {"the_date":"January 14 1993","the_city":"London","the_country":"England","the_venue":"ULU","lat":51.5073509,"lon":-0.1277583},
  {"the_date":"January 15 1993","the_city":"Gloucester","the_country":"England","the_venue":"Guild Hall Arts Centre","lat":51.8642449,"lon":-2.238156},
  {"the_date":"January 22 1993","the_city":"Dudley","the_country":"England","the_venue":"JB's","lat":52.512255,"lon":-2.081112},
  {"the_date":"January 26 1993","the_city":"Canterbury","the_country":"England","the_venue":"Expose Club","lat":51.280233,"lon":1.0789089},
  {"the_date":"January 28 1993","the_city":"Chelmsford","the_country":"England","the_venue":"Y Club","lat":51.7355868,"lon":0.4685497},
  {"the_date":"January 29 1993","the_city":"Lichfield","the_country":"England","the_venue":"Arts Centre","lat":52.681602,"lon":-1.831672},
  {"the_date":"January 30 1993","the_city":"Kingston","the_country":"England","the_venue":"Kingston Polytechnic University","lat":51.41233,"lon":-0.300689},
  {"the_date":"February 03 1993","the_city":"Stoke","the_country":"England","the_venue":"Wheatsheaf","lat":53.002668,"lon":-2.179404},
  {"the_date":"February 04 1993","the_city":"Loughborough","the_country":"England","the_venue":"Loughborough University","lat":52.772099,"lon":-1.206166},
  {"the_date":"February 05 1993","the_city":"Leicester","the_country":"England","the_venue":"Princess Charolotte","lat":52.6368778,"lon":-1.1397592},
  {"the_date":"February 06 1993","the_city":"Coventry","the_country":"England","the_venue":"Warwick University","lat":52.406822,"lon":-1.519693},
  {"the_date":"February 10 1993","the_city":"Buckley","the_country":"England","the_venue":"Tivoli","lat":53.17005,"lon":-3.0814879},
  {"the_date":"February 11 1993","the_city":"St Albans","the_country":"England","the_venue":"Oral Surgery","lat":51.752725,"lon":-0.339436},
  {"the_date":"February 13 1993","the_city":"Reading","the_country":"England","the_venue":"After Dark Club","lat":51.4542645,"lon":-0.9781303},
  {"the_date":"February 15 1993","the_city":"Nottingham","the_country":"England","the_venue":"Trent University","lat":52.95478319999999,"lon":-1.1581086},
  {"the_date":"February 16 1993","the_city":"Brighton","the_country":"England","the_venue":"Pavilion Theatre","lat":50.82253000000001,"lon":-0.137163},
  {"the_date":"February 17 1993","the_city":"Bristol","the_country":"England","the_venue":"Fleece and Firkin","lat":51.454513,"lon":-2.58791},
  {"the_date":"February 18 1993","the_city":"Southampton","the_country":"England","the_venue":"Joiner's Arms","lat":50.90970040000001,"lon":-1.4043509},
  {"the_date":"February 19 1993","the_city":"Exeter","the_country":"England","the_venue":"Cavern Club","lat":50.718412,"lon":-3.533899},
  {"the_date":"February 20 1993","the_city":"Oxford","the_country":"England","the_venue":"Venue","lat":51.7520209,"lon":-1.2577263},
  {"the_date":"February 22 1993","the_city":"Sheffield","the_country":"England","the_venue":"Sheffield University","lat":53.38112899999999,"lon":-1.470085},
  {"the_date":"February 23 1993","the_city":"Paris","the_country":"France","the_venue":"La Maison de la Radio","lat":48.856614,"lon":2.3522219},
  {"the_date":"February 24 1993","the_city":"Manchester","the_country":"England","the_venue":"Boardwalk","lat":53.4807593,"lon":-2.2426305},
  {"the_date":"February 25 1993","the_city":"Hull","the_country":"England","the_venue":"Adelphi","lat":53.7456709,"lon":-0.3367413},
  {"the_date":"February 27 1993","the_city":"Greenock","the_country":"Scotland","the_venue":"Rico's","lat":55.95647599999999,"lon":-4.771983},
  {"the_date":"February 28 1993","the_city":"Glasgow","the_country":"Scotland","the_venue":"King Tut's Wah Wah Hut","lat":55.864237,"lon":-4.251806},
  {"the_date":"March 01 1993","the_city":"Leeds","the_country":"England","the_venue":"Duchess of York","lat":53.8007554,"lon":-1.5490774},
  {"the_date":"March 02 1993","the_city":"Kidderminster","the_country":"England","the_venue":"Market Tavern","lat":52.388596,"lon":-2.2496839},
  {"the_date":"March 03 1993","the_city":"Rayleigh","the_country":"England","the_venue":"Pink Toothbrush","lat":51.586385,"lon":0.6048709999999999},
  {"the_date":"March 04 1993","the_city":"London","the_country":"England","the_venue":"Camden Underworld","lat":51.5073509,"lon":-0.1277583},
  {"the_date":"March 05 1993","the_city":"Treforest","the_country":"Wales","the_venue":"Glamorgan University","lat":51.59431000000001,"lon":-3.3268985},
  {"the_date":"March 14 1993","the_city":"London","the_country":"England","the_venue":"Town and Country Club","lat":51.5073509,"lon":-0.1277583},
  {"the_date":"March 31 1993","the_city":"Tel Aviv","the_country":"Israel","the_venue":"Roxane","lat":32.0852999,"lon":34.78176759999999},
  {"the_date":"April 01 1993","the_city":"Tel Aviv","the_country":"Israel","the_venue":"Roxane","lat":32.0852999,"lon":34.78176759999999},
  {"the_date":"April 02 1993","the_city":"Tel Aviv","the_country":"Israel","the_venue":"Roxane","lat":32.0852999,"lon":34.78176759999999},
  {"the_date":"April 29 1993","the_city":"Cardiff","the_country":"Wales","the_venue":"??","lat":51.48158100000001,"lon":-3.17909},
  {"the_date":"April 30 1993","the_city":"Wolverhampton","the_country":"England","the_venue":"Wulfrun Hall","lat":52.586973,"lon":-2.12882},
  {"the_date":"May 01 1993","the_city":"Nottingham","the_country":"England","the_venue":"Trent University","lat":52.95478319999999,"lon":-1.1581086},
  {"the_date":"May 02 1993","the_city":"Sheffield","the_country":"England","the_venue":"Sheffield University","lat":53.38112899999999,"lon":-1.470085},
  {"the_date":"May 03 1993","the_city":"Glasgow","the_country":"Scotland","the_venue":"King Tut's Wah Wah Hut","lat":55.864237,"lon":-4.251806},
  {"the_date":"May 05 1993","the_city":"Haarlem","the_country":"Netherlands","the_venue":"Haarlemmerhout","lat":52.3873878,"lon":4.6462194},
  {"the_date":"May 06 1993","the_city":"Leicester","the_country":"England","the_venue":"Leicester University","lat":52.6368778,"lon":-1.1397592},
  {"the_date":"May 07 1993","the_city":"Leeds","the_country":"England","the_venue":"Leeds University","lat":53.8007554,"lon":-1.5490774},
  {"the_date":"May 08 1993","the_city":"Manchester","the_country":"England","the_venue":"Manchester University","lat":53.4807593,"lon":-2.2426305},
  {"the_date":"May 09 1993","the_city":"Newcastle","the_country":"England","the_venue":"Riverside","lat":54.978252,"lon":-1.61778},
  {"the_date":"May 10 1993","the_city":"Bristol","the_country":"England","the_venue":"Bristol University","lat":51.454513,"lon":-2.58791},
  {"the_date":"May 12 1993","the_city":"London","the_country":"England","the_venue":"ULU","lat":51.5073509,"lon":-0.1277583},
  {"the_date":"May 14 1993","the_city":"Dublin","the_country":"Ireland","the_venue":"Rock Garden","lat":53.3498053,"lon":-6.2603097},
  {"the_date":"May 15 1993","the_city":"Belfast","the_country":"Ireland","the_venue":"Conor Hall","lat":54.6021003,"lon":-5.928702899999999},
  {"the_date":"June 02 1993","the_city":"Århus","the_country":"Denmark","the_venue":"Huset","lat":56.162939,"lon":10.203921},
  {"the_date":"June 03 1993","the_city":"København","the_country":"Denmark","the_venue":"Barbue","lat":55.6760968,"lon":12.5683371},
  {"the_date":"June 04 1993","the_city":"Göteborg","the_country":"Sweden","the_venue":"Magasinet","lat":57.70887,"lon":11.97456},
  {"the_date":"June 05 1993","the_city":"Lund","the_country":"Sweden","the_venue":"Mejeriet","lat":55.7046601,"lon":13.1910073},
  {"the_date":"June 05 1993","the_city":"Fagersta","the_country":"Sweden","the_venue":"Bergslagsrocken","lat":59.989144,"lon":15.8166418},
  {"the_date":"June 08 1993","the_city":"Nijmergen","the_country":"Netherlands","the_venue":"Doornroosje","lat":51.8125626,"lon":5.8372264},
  {"the_date":"June 09 1993","the_city":"Utrect","the_country":"Netherlands","the_venue":"Tivoli","lat":52.09073739999999,"lon":5.1214201},
  {"the_date":"June 10 1993","the_city":"Den Haag","the_country":"Netherlands","the_venue":"Het Paard","lat":52.0704978,"lon":4.3006999},
  {"the_date":"June 11 1993","the_city":"Rotterdam","the_country":"Netherlands","the_venue":"Nighttown","lat":51.9244201,"lon":4.4777325},
  {"the_date":"June 12 1993","the_city":"Velsen","the_country":"Netherlands","the_venue":"Beeckestijnpop Festival","lat":52.4520591,"lon":4.630587},
  {"the_date":"June 12 1993","the_city":"Amsterdam","the_country":"Netherlands","the_venue":"De Melkweg","lat":52.3702157,"lon":4.895167900000001},
  {"the_date":"June 14 1993","the_city":"Paris","the_country":"France","the_venue":"??","lat":48.856614,"lon":2.3522219},
  {"the_date":"June 15 1993","the_city":"Nancy","the_country":"France","the_venue":"FNAC Auditorium","lat":48.692054,"lon":6.184417},
  {"the_date":"June 15 1993","the_city":"Nancy","the_country":"France","the_venue":"Cine 3000","lat":48.692054,"lon":6.184417},
  {"the_date":"June 16 1993","the_city":"Lyon","the_country":"France","the_venue":"??","lat":45.764043,"lon":4.835659},
  {"the_date":"June 17 1993","the_city":"Montpelier","the_country":"France","the_venue":"Rockstore","lat":43.610769,"lon":3.876716},
  {"the_date":"June 18 1993","the_city":"Bordeux","the_country":"France","the_venue":"??","lat":44.837789,"lon":-0.57918},
  {"the_date":"June 19 1993","the_city":"Rennes","the_country":"France","the_venue":"L'Espace","lat":48.117266,"lon":-1.6777926},
  {"the_date":"June 19 1993","the_city":"Rennes","the_country":"France","the_venue":"??","lat":48.117266,"lon":-1.6777926},
  {"the_date":"June 20 1993","the_city":"Paris","the_country":"France","the_venue":"Passage Du Nord","lat":48.856614,"lon":2.3522219},
  {"the_date":"June 22 1993","the_city":"Boston, MA","the_country":"USA","the_venue":"Venus de Milo","lat":42.3600825,"lon":-71.0588801},
  {"the_date":"June 23 1993","the_city":"Philadelphia, PA","the_country":"USA","the_venue":"Theatre of Living Arts","lat":39.9525839,"lon":-75.1652215},
  {"the_date":"June 24 1993","the_city":"New York, NY","the_country":"USA","the_venue":"CBGB's","lat":40.7127837,"lon":-74.0059413},
  {"the_date":"June 26 1993","the_city":"New York, NY","the_country":"USA","the_venue":"The Academy","lat":40.7127837,"lon":-74.0059413},
  {"the_date":"June 28 1993","the_city":"Washington, DC","the_country":"USA","the_venue":"9:30 Club","lat":38.9071923,"lon":-77.0368707},
  {"the_date":"June 30 1993","the_city":"Chicago, IL","the_country":"USA","the_venue":"Cabaret Metro","lat":41.8781136,"lon":-87.6297982},
  {"the_date":"July 01 1993","the_city":"Dallas, TX","the_country":"USA","the_venue":"??","lat":32.7766642,"lon":-96.79698789999999},
  {"the_date":"July 01 1993","the_city":"Detroit, MI","the_country":"USA","the_venue":"St Andrew's Hall","lat":42.331427,"lon":-83.0457538},
  {"the_date":"July 02 1993","the_city":"Toronto","the_country":"Canada","the_venue":"Ontario Forum","lat":43.653226,"lon":-79.3831843},
  {"the_date":"July 04 1993","the_city":"Quogue, NY","the_country":"USA","the_venue":"MTV Beach house","lat":40.8231553,"lon":-72.60953839999999},
  {"the_date":"July 05 1993","the_city":"Salt Lake City, UT","the_country":"USA","the_venue":"DV8","lat":40.7607793,"lon":-111.8910474},
  {"the_date":"July 07 1993","the_city":"Seattle, WA","the_country":"USA","the_venue":"RKCNDY","lat":47.6062095,"lon":-122.3320708},
  {"the_date":"July 08 1993","the_city":"Portland, OR","the_country":"USA","the_venue":"La Luna","lat":45.5230622,"lon":-122.6764816},
  {"the_date":"July 09 1993","the_city":"Vancouver, BC","the_country":"Canada","the_venue":"Town Pump","lat":49.2827291,"lon":-123.1207375},
  {"the_date":"July 11 1993","the_city":"San Francisco, CA","the_country":"USA","the_venue":"Justin Herman Plaza","lat":37.7749295,"lon":-122.4194155},
  {"the_date":"July 11 1993","the_city":"San Francisco, CA","the_country":"USA","the_venue":"Slim's","lat":37.7749295,"lon":-122.4194155},
  {"the_date":"July 12 1993","the_city":"Hollywood, CA","the_country":"USA","the_venue":"The Whiskey","lat":34.0928092,"lon":-118.3286614},
  {"the_date":"July 13 1993","the_city":"Hollywood, CA","the_country":"USA","the_venue":"The Palladium","lat":34.0928092,"lon":-118.3286614},
  {"the_date":"July 13 1993","the_city":"Los Angeles, CA","the_country":"USA","the_venue":"KROQ studios","lat":34.0522342,"lon":-118.2436849},
  {"the_date":"July 14 1993","the_city":"Hollywood, CA","the_country":"USA","the_venue":"Arsenio Hall Show","lat":34.0928092,"lon":-118.3286614},
  {"the_date":"July 14 1993","the_city":"Los Angeles, CA","the_country":"USA","the_venue":"??","lat":34.0522342,"lon":-118.2436849},
  {"the_date":"July 15 1993","the_city":"Phoenix, AZ","the_country":"USA","the_venue":"The Library Cafe","lat":33.4483771,"lon":-112.0740373},
  {"the_date":"July 16 1993","the_city":"San Diego, CA","the_country":"USA","the_venue":"World Beat Center","lat":32.715738,"lon":-117.1610838},
  {"the_date":"July 19 1993","the_city":"Boulder, CO","the_country":"USA","the_venue":"Fox Theatre","lat":40.0149856,"lon":-105.2705456},
  {"the_date":"August 15 1993","the_city":"Dronten","the_country":"Netherlands","the_venue":"??","lat":52.5346819,"lon":5.7218086},
  {"the_date":"August 15 1993","the_city":"Leuven","the_country":"Belgium","the_venue":"Marktrock festival","lat":50.883333,"lon":4.7},
  {"the_date":"August 21 1993","the_city":"Wateringen","the_country":"Netherlands","the_venue":"Waterpop","lat":52.02468229999999,"lon":4.2741049},
  {"the_date":"August 22 1993","the_city":"Gierle","the_country":"Belgium","the_venue":"Sjock Festival","lat":51.2671512,"lon":4.8677063},
  {"the_date":"August 28 1993","the_city":"Oxford","the_country":"England","the_venue":"Venue","lat":51.7520209,"lon":-1.2577263},
  {"the_date":"September 01 1993","the_city":"London","the_country":"England","the_venue":"The Garage","lat":51.5073509,"lon":-0.1277583},
  {"the_date":"September 02 1993","the_city":"Shelton, Stoke, Staffordshire","the_country":"England","the_venue":"Signal Radio Studios","lat":53.011109,"lon":-2.184865},
  {"the_date":"September 03 1993","the_city":"Glasgow","the_country":"Scotland","the_venue":"Barrowlands","lat":55.864237,"lon":-4.251806},
  {"the_date":"September 14 1993","the_city":"New York, NY","the_country":"USA","the_venue":"NBC Studios","lat":40.7127837,"lon":-74.0059413},
  {"the_date":"September 17 1993","the_city":"Houston, TX","the_country":"USA","the_venue":"Rockefeller’s West","lat":29.7604267,"lon":-95.3698028},
  {"the_date":"September 18 1993","the_city":"Dallas, TX","the_country":"USA","the_venue":"Bomb Factory","lat":32.7766642,"lon":-96.79698789999999},
  {"the_date":"September 19 1993","the_city":"Austin, TX","the_country":"USA","the_venue":"The Terrace","lat":30.267153,"lon":-97.7430608},
  {"the_date":"September 21 1993","the_city":"Gainesville, FL","the_country":"USA","the_venue":"Florida Theater","lat":29.6516344,"lon":-82.32482619999999},
  {"the_date":"September 22 1993","the_city":"ST Petersburg, FL","the_country":"USA","the_venue":"Jannus Landing","lat":27.773056,"lon":-82.64},
  {"the_date":"September 23 1993","the_city":"Miami Beach, FL","the_country":"USA","the_venue":"Cameo Theater","lat":25.790654,"lon":-80.1300455},
  {"the_date":"September 24 1993","the_city":"Orlando, FL","the_country":"USA","the_venue":"Visage Club","lat":28.5383355,"lon":-81.3792365},
  {"the_date":"September 25 1993","the_city":"Atlanta, GA","the_country":"USA","the_venue":"Masquerade Music Park","lat":33.7489954,"lon":-84.3879824},
  {"the_date":"September 27 1993","the_city":"Athens, GA","the_country":"USA","the_venue":"40 Watt Club","lat":33.95,"lon":-83.383333},
  {"the_date":"September 28 1993","the_city":"Charlotte, NC","the_country":"USA","the_venue":"The Underground Annex","lat":35.2270869,"lon":-80.8431267},
  {"the_date":"September 30 1993","the_city":"Norfolk, VA","the_country":"USA","the_venue":"The Boathouse","lat":36.8507689,"lon":-76.28587259999999},
  {"the_date":"October 01 1993","the_city":"College Park, MD","the_country":"USA","the_venue":"Ritchie Coliseum","lat":38.9896967,"lon":-76.93776},
  {"the_date":"October 02 1993","the_city":"Newark, DE","the_country":"USA","the_venue":"Carpenter Sports Building, University of Delaware","lat":39.6837226,"lon":-75.74965720000002},
  {"the_date":"October 03 1993","the_city":"New Brunswick, NJ","the_country":"USA","the_venue":"Rutgers University","lat":40.4862157,"lon":-74.4518188},
  {"the_date":"October 05 1993","the_city":"Amherst, MA","the_country":"USA","the_venue":"Union Ballroom at Universtiy Massachusetts","lat":42.367,"lon":-72.517},
  {"the_date":"October 06 1993","the_city":"Providence, RI","the_country":"USA","the_venue":"Lupo's Heartbreak Hotel","lat":41.8239891,"lon":-71.4128343},
  {"the_date":"October 08 1993","the_city":"Boston, MA","the_country":"USA","the_venue":"Avalon Ballroom","lat":42.3600825,"lon":-71.0588801},
  {"the_date":"October 09 1993","the_city":"New York, NY","the_country":"USA","the_venue":"Roseland","lat":40.7127837,"lon":-74.0059413},
  {"the_date":"October 10 1993","the_city":"Philadelphia, PA","the_country":"USA","the_venue":"Trocadero","lat":39.9525839,"lon":-75.1652215},
  {"the_date":"October 11 1993","the_city":"Pittsburgh, PA","the_country":"USA","the_venue":"Metropol","lat":40.44062479999999,"lon":-79.9958864},
  {"the_date":"October 13 1993","the_city":"Detroit, MI","the_country":"USA","the_venue":"State Theater","lat":42.331427,"lon":-83.0457538},
  {"the_date":"October 14 1993","the_city":"Milwaukee, WI","the_country":"USA","the_venue":"The Rave","lat":43.0389025,"lon":-87.9064736},
  {"the_date":"October 15 1993","the_city":"Chicago, IL","the_country":"USA","the_venue":"??","lat":41.8781136,"lon":-87.6297982},
  {"the_date":"October 15 1993","the_city":"Chicago, IL","the_country":"USA","the_venue":"Riviera","lat":41.8781136,"lon":-87.6297982},
  {"the_date":"October 16 1993","the_city":"Dekalb, IL","the_country":"USA","the_venue":"Duke Ellington Ballroom at Northern Illinois University","lat":41.9294736,"lon":-88.75036469999999},
  {"the_date":"October 17 1993","the_city":"St Louis, MO","the_country":"USA","the_venue":"American Theater","lat":38.6270025,"lon":-90.19940419999999},
  {"the_date":"October 19 1993","the_city":"Boulder, CO","the_country":"USA","the_venue":"Glenn Miller Ballroom-University of Colorado Campus","lat":40.0149856,"lon":-105.2705456},
  {"the_date":"October 21 1993","the_city":"Phoenix, AZ","the_country":"USA","the_venue":"The Grind","lat":33.4483771,"lon":-112.0740373},
  {"the_date":"October 22 1993","the_city":"Hollywood, CA","the_country":"USA","the_venue":"The Palace","lat":34.0928092,"lon":-118.3286614},
  {"the_date":"October 24 1993","the_city":"San Francisco, CA","the_country":"USA","the_venue":"Warfield","lat":37.7749295,"lon":-122.4194155},
  {"the_date":"October 26 1993","the_city":"Vancouver","the_country":"Canada","the_venue":"86 Street Music Hall","lat":49.2827291,"lon":-123.1207375},
  {"the_date":"October 27 1993","the_city":"Calgary","the_country":"Canada","the_venue":"??","lat":51.0486151,"lon":-114.0708459},
  {"the_date":"October 28 1993","the_city":"Las Vegas, NV","the_country":"USA","the_venue":"Alladin Theatre","lat":36.1699412,"lon":-115.1398296},
  {"the_date":"November 01 1993","the_city":"Toronto","the_country":"Canada","the_venue":"RPM Club","lat":43.653226,"lon":-79.3831843},
  {"the_date":"November 02 1993","the_city":"Montreal","the_country":"Canada","the_venue":"Woodstock Bar","lat":45.5016889,"lon":-73.567256},
  {"the_date":"November 11 1993","the_city":"Hamburg","the_country":"Germany","the_venue":"Markthalle","lat":53.5510846,"lon":9.9936818},
  {"the_date":"November 12 1993","the_city":"Cologne","the_country":"Germany","the_venue":"Live Music Hall","lat":50.937531,"lon":6.9602786},
  {"the_date":"November 13 1993","the_city":"Frankfurt","the_country":"Germany","the_venue":"Music Hall","lat":50.1109221,"lon":8.6821267},
  {"the_date":"November 15 1993","the_city":"Munich","the_country":"Germany","the_venue":"Charterhalle","lat":48.1351253,"lon":11.5819806},
  {"the_date":"November 16 1993","the_city":"Besancon","the_country":"France","the_venue":"Montjoye","lat":47.237829,"lon":6.024053899999999},
  {"the_date":"November 18 1993","the_city":"Toulouse","the_country":"France","the_venue":"La Confluant","lat":43.604652,"lon":1.444209},
  {"the_date":"November 19 1993","the_city":"Marseille","the_country":"France","the_venue":"Theatre du Moulin","lat":43.296482,"lon":5.36978},
  {"the_date":"November 20 1993","the_city":"Geneva","the_country":"Switzerland","the_venue":"Vernier sur Rock","lat":46.1983922,"lon":6.142296099999999},
  {"the_date":"November 22 1993","the_city":"Lyon","the_country":"France","the_venue":"Transbordeur","lat":45.764043,"lon":4.835659},
  {"the_date":"November 23 1993","the_city":"Paris","the_country":"France","the_venue":"De Casino","lat":48.856614,"lon":2.3522219},
  {"the_date":"November 25 1993","the_city":"Barcelona","the_country":"Spain","the_venue":"Zeleste","lat":41.3850639,"lon":2.1734035},
  {"the_date":"November 26 1993","the_city":"Madrid","the_country":"Spain","the_venue":"Pachá","lat":40.4167754,"lon":-3.7037902},
  {"the_date":"November 27 1993","the_city":"Lisbon","the_country":"Portugal","the_venue":"Pavilhão dos Belenenses","lat":38.7222524,"lon":-9.1393366},
  {"the_date":"November 28 1993","the_city":"Porto","the_country":"Portugal","the_venue":"Coliseu do Porto","lat":41.1579438,"lon":-8.629105299999999},
  {"the_date":"December 01 1993","the_city":"Glasgow","the_country":"Scotland","the_venue":"The Barrowlands","lat":55.864237,"lon":-4.251806},
  {"the_date":"December 02 1993","the_city":"York","the_country":"England","the_venue":"Barbican Centre","lat":53.95996510000001,"lon":-1.0872979},
  {"the_date":"December 04 1993","the_city":"Manchester","the_country":"England","the_venue":"G-Mex","lat":53.4807593,"lon":-2.2426305},
  {"the_date":"December 05 1993","the_city":"Wolverhampton","the_country":"England","the_venue":"Civic Hall","lat":52.586973,"lon":-2.12882},
  {"the_date":"December 07 1993","the_city":"Derby","the_country":"England","the_venue":"Assembly Rooms","lat":52.9225301,"lon":-1.4746186},
  {"the_date":"December 08 1993","the_city":"Gloucester","the_country":"England","the_venue":"Leisure Centre","lat":51.8642449,"lon":-2.238156},
  {"the_date":"December 09 1993","the_city":"London","the_country":"England","the_venue":"Brixton Academy","lat":51.5073509,"lon":-0.1277583},
  {"the_date":"December 11 1993","the_city":"Portsmouth","the_country":"England","the_venue":"Guild Hall","lat":50.816667,"lon":-1.083333},
  {"the_date":"December 12 1993","the_city":"Norwich","the_country":"England","the_venue":"UEA","lat":52.6308859,"lon":1.297355},
  {"the_date":"December 13 1993","the_city":"Newport","the_country":"England","the_venue":"Newport Centre","lat":50.700803,"lon":-1.291633},
  {"the_date":"February 21 1994","the_city":"Reading","the_country":"England","the_venue":"Royal Berks Social Club","lat":51.4542645,"lon":-0.9781303},
  {"the_date":"May 07 1994","the_city":"Seville","the_country":"Spain","the_venue":"Muelle de la Sal","lat":37.3890924,"lon":-5.9844589},
  {"the_date":"May 09 1994","the_city":"Barcelona","the_country":"Spain","the_venue":"??","lat":41.3850639,"lon":2.1734035},
  {"the_date":"May 10 1994","the_city":"Madrid","the_country":"Spain","the_venue":"Círculo de Bellas Artes","lat":40.4167754,"lon":-3.7037902},
  {"the_date":"May 12 1994","the_city":"Alanbro","the_country":"Italy","the_venue":"??","lat":42.52535719999999,"lon":12.8015842},
  {"the_date":"May 13 1994","the_city":"Cesena","the_country":"Italy","the_venue":"Vidia","lat":44.1396438,"lon":12.2464292},
  {"the_date":"May 14 1994","the_city":"Biella","the_country":"Italy","the_venue":"Babylonia in Ponderano","lat":45.56288420000001,"lon":8.0583397},
  {"the_date":"May 15 1994","the_city":"Firenzi","the_country":"Italy","the_venue":"??","lat":43.7710332,"lon":11.2480006},
  {"the_date":"May 18 1994","the_city":"Zurich","the_country":"Switzerland","the_venue":"??","lat":47.3686498,"lon":8.539182499999999},
  {"the_date":"May 19 1994","the_city":"Lucerne","the_country":"Switzerland","the_venue":"Schüür","lat":47.0500376,"lon":8.3089295},
  {"the_date":"May 20 1994","the_city":"Lausanne","the_country":"Switzerland","the_venue":"Balelec","lat":46.5199617,"lon":6.633597099999999},
  {"the_date":"May 21 1994","the_city":"Munich","the_country":"Germany","the_venue":"Old Airport in Riem","lat":48.1351253,"lon":11.5819806},
  {"the_date":"May 22 1994","the_city":"Koln","the_country":"Germany","the_venue":"??","lat":50.937531,"lon":6.9602786},
  {"the_date":"May 25 1994","the_city":"Manchester","the_country":"England","the_venue":"Manchester University","lat":53.4807593,"lon":-2.2426305},
  {"the_date":"May 26 1994","the_city":"Wolverhampton","the_country":"England","the_venue":"Wulfrum Hall","lat":52.586973,"lon":-2.12882},
  {"the_date":"May 27 1994","the_city":"London","the_country":"England","the_venue":"Astoria","lat":51.5073509,"lon":-0.1277583},
  {"the_date":"June 04 1994","the_city":"Tokyo","the_country":"Japan","the_venue":"Shibuya Club Quatro","lat":35.7090259,"lon":139.7319925},
  {"the_date":"June 06 1994","the_city":"Osaka","the_country":"Japan","the_venue":"Shinsaibashi Club Quatro","lat":34.6937378,"lon":135.5021651},
  {"the_date":"June 07 1994","the_city":"Nagoya","the_country":"Japan","the_venue":"Club Quatro","lat":35.1814464,"lon":136.906398},
  {"the_date":"June 08 1994","the_city":"Kawasaki","the_country":"Japan","the_venue":"Club Citta","lat":35.5309058,"lon":139.7030511},
  {"the_date":"June 09 1994","the_city":"Tokyo","the_country":"Japan","the_venue":"Kawasaki Club Citta","lat":35.7090259,"lon":139.7319925},
  {"the_date":"June 12 1994","the_city":"Hong Kong","the_country":"China","the_venue":"Ko Shan Theater","lat":22.396428,"lon":114.109497},
  {"the_date":"June 14 1994","the_city":"Perth","the_country":"Australia","the_venue":"Metropolis","lat":-31.9535132,"lon":115.8570471},
  {"the_date":"June 15 1994","the_city":"Adelaide","the_country":"Australia","the_venue":"Lennies","lat":-34.92862119999999,"lon":138.5999594},
  {"the_date":"June 16 1994","the_city":"Melbourne","the_country":"Australia","the_venue":"The Palace","lat":-37.814107,"lon":144.96328},
  {"the_date":"June 17 1994","the_city":"Brisbane","the_country":"Australia","the_venue":"The Roxy","lat":-27.4710107,"lon":153.0234489},
  {"the_date":"June 18 1994","the_city":"Sydney","the_country":"Australia","the_venue":"Selinas","lat":-33.8674869,"lon":151.2069902},
  {"the_date":"June 20 1994","the_city":"Sydney","the_country":"Australia","the_venue":"??","lat":-33.8674869,"lon":151.2069902},
  {"the_date":"June 22 1994","the_city":"Auckland","the_country":"New Zealand","the_venue":"Auckland Town Hall","lat":-36.8484597,"lon":174.7633315},
  {"the_date":"June 26 1994","the_city":"Glastonbury","the_country":"England","the_venue":"a field","lat":51.147427,"lon":-2.718454},
  {"the_date":"July 02 1994","the_city":"Roskilde","the_country":"Denmark","the_venue":"Green Stage","lat":55.64191,"lon":12.087845},
  {"the_date":"August 23 1994","the_city":"Sopot","the_country":"Poland","the_venue":"Sopot Festival","lat":54.441581,"lon":18.5600956},
  {"the_date":"August 25 1994","the_city":"Gloucester","the_country":"England","the_venue":"Guild Hall Arts Centre","lat":51.8642449,"lon":-2.238156},
  {"the_date":"August 27 1994","the_city":"Reading","the_country":"England","the_venue":"??","lat":51.4542645,"lon":-0.9781303},
  {"the_date":"September 14 1994","the_city":"London","the_country":"England","the_venue":"??","lat":51.5073509,"lon":-0.1277583},
  {"the_date":"September 23 1994","the_city":"Abingdon","the_country":"England","the_venue":"Old Gaol","lat":51.67078,"lon":-1.2879529},
  {"the_date":"September 27 1994","the_city":"Glasgow","the_country":"Scotland","the_venue":"The Plaza","lat":55.864237,"lon":-4.251806},
  {"the_date":"September 28 1994","the_city":"Newcastle","the_country":"England","the_venue":"Newcastle University","lat":54.978252,"lon":-1.61778},
  {"the_date":"September 29 1994","the_city":"Leeds","the_country":"England","the_venue":"Leeds University","lat":53.8007554,"lon":-1.5490774},
  {"the_date":"September 30 1994","the_city":"Sheffield","the_country":"England","the_venue":"Sheffield University","lat":53.38112899999999,"lon":-1.470085},
  {"the_date":"October 02 1994","the_city":"Leicester","the_country":"England","the_venue":"De Montfort University","lat":52.6368778,"lon":-1.1397592},
  {"the_date":"October 03 1994","the_city":"Cambridge","the_country":"England","the_venue":"Junction","lat":52.205337,"lon":0.121817},
  {"the_date":"October 04 1994","the_city":"Portsmouth","the_country":"England","the_venue":"Pyramids Centre","lat":50.816667,"lon":-1.083333},
  {"the_date":"October 06 1994","the_city":"London","the_country":"England","the_venue":"??","lat":51.5073509,"lon":-0.1277583},
  {"the_date":"October 06 1994","the_city":"Exeter","the_country":"England","the_venue":"Exeter University, Lemon Grove","lat":50.718412,"lon":-3.533899},
  {"the_date":"October 07 1994","the_city":"Brighton","the_country":"England","the_venue":"East Wing Centre","lat":50.82253000000001,"lon":-0.137163},
  {"the_date":"October 08 1994","the_city":"London","the_country":"England","the_venue":"Shepherds Bush Empire","lat":51.5073509,"lon":-0.1277583},
  {"the_date":"October 19 1994","the_city":"Mexico City","the_country":"Mexico","the_venue":"La Diabla","lat":19.4326077,"lon":-99.133208},
  {"the_date":"October 20 1994","the_city":"Ojo de Agua","the_country":"Mexico","the_venue":"La Panza","lat":19.6775122,"lon":-99.0329594},
  {"the_date":"October 21 1994","the_city":"Guadalajara","the_country":"Mexico","the_venue":"Roxxy","lat":20.6596988,"lon":-103.3496092},
  {"the_date":"October 23 1994","the_city":"Guanajuato","the_country":"Mexico","the_venue":"Sancho's","lat":21.0190145,"lon":-101.2573586},
  {"the_date":"October 24 1994","the_city":"Pachuca, Hidalgo","the_country":"Mexico","the_venue":"Teatro de San Francisco","lat":20.1010608,"lon":-98.7591311},
  {"the_date":"November 01 1994","the_city":"Miami, FL","the_country":"USA","the_venue":"MTV Latino","lat":25.7616798,"lon":-80.1917902},
  {"the_date":"November 02 1994","the_city":"New York, NY","the_country":"USA","the_venue":"Mercury Lounge","lat":40.7127837,"lon":-74.0059413},
  {"the_date":"November 04 1994","the_city":"Los Angeles, CA","the_country":"USA","the_venue":"Luna Park","lat":34.0522342,"lon":-118.2436849},
  {"the_date":"December 02 1994","the_city":"Amsterdam","the_country":"Netherlands","the_venue":"Melkweg","lat":52.3702157,"lon":4.895167900000001},
  {"the_date":"December 06 1994","the_city":"Boston, MA","the_country":"USA","the_venue":"??","lat":42.3600825,"lon":-71.0588801},
  {"the_date":"December 13 1994","the_city":"New York, NY","the_country":"USA","the_venue":"Beacon Theatre","lat":40.7127837,"lon":-74.0059413},
  {"the_date":"December 17 1994","the_city":"Seattle, WA","the_country":"USA","the_venue":"Exhibition Hall","lat":47.6062095,"lon":-122.3320708},
  {"the_date":"December 21 1994","the_city":"Oxford","the_country":"England","the_venue":"Jericho Tavern","lat":51.7520209,"lon":-1.2577263},
  {"the_date":"February 02 1995","the_city":"Vancouver","the_country":"Canada","the_venue":"The Railway","lat":49.2827291,"lon":-123.1207375},
  {"the_date":"February 10 1995","the_city":"Liverpool","the_country":"England","the_venue":"Lomax","lat":53.4083714,"lon":-2.9915726},
  {"the_date":"February 12 1995","the_city":"Oxford","the_country":"England","the_venue":"Apollo","lat":51.7520209,"lon":-1.2577263},
  {"the_date":"February 14 1995","the_city":"Edinburgh","the_country":"Scotland","the_venue":"La Belle Angel","lat":55.953252,"lon":-3.188267},
  {"the_date":"February 15 1995","the_city":"Sheffield","the_country":"England","the_venue":"??","lat":53.38112899999999,"lon":-1.470085},
  {"the_date":"February 16 1995","the_city":"London","the_country":"England","the_venue":"Eve's Club","lat":51.5073509,"lon":-0.1277583},
  {"the_date":"February 17 1995","the_city":"Leicester","the_country":"England","the_venue":"Leicester University Student Union","lat":52.6368778,"lon":-1.1397592},
  {"the_date":"February 21 1995","the_city":"Paris","the_country":"France","the_venue":"La Maison de la Radio","lat":48.856614,"lon":2.3522219},
  {"the_date":"February 25 1995","the_city":"Oxford","the_country":"England","the_venue":"Apollo","lat":51.7520209,"lon":-1.2577263},
  {"the_date":"February 27 1995","the_city":"Nederhorst den Berg","the_country":"Netherlands","the_venue":"Bullet Sound Studios","lat":52.2601767,"lon":5.0449932},
  {"the_date":"March 09 1995","the_city":"Cardiff","the_country":"Wales","the_venue":"University Great Hall","lat":51.48158100000001,"lon":-3.17909},
  {"the_date":"March 10 1995","the_city":"Bristol","the_country":"England","the_venue":"Bristol University","lat":51.454513,"lon":-2.58791},
  {"the_date":"March 11 1995","the_city":"Truro","the_country":"England","the_venue":"Truro City Hall","lat":50.263195,"lon":-5.051041},
  {"the_date":"March 13 1995","the_city":"Wolverhampton","the_country":"England","the_venue":"Wulfrun Hall","lat":52.586973,"lon":-2.12882},
  {"the_date":"March 14 1995","the_city":"Sheffield","the_country":"England","the_venue":"Nelson Mandela Building at Hallam University","lat":53.38112899999999,"lon":-1.470085},
  {"the_date":"March 15 1995","the_city":"Aberdeen","the_country":"Scotland","the_venue":"Lemon Tree","lat":57.149717,"lon":-2.094278},
  {"the_date":"March 16 1995","the_city":"Glasgow","the_country":"Scotland","the_venue":"The Garage","lat":55.864237,"lon":-4.251806},
  {"the_date":"March 18 1995","the_city":"Preston","the_country":"England","the_venue":"University of Central Lancashire","lat":53.763201,"lon":-2.70309},
  {"the_date":"March 19 1995","the_city":"Middlesborough","the_country":"England","the_venue":"Town Hall","lat":54.574227,"lon":-1.234956},
  {"the_date":"March 20 1995","the_city":"Manchester","the_country":"England","the_venue":"Manchester Universtiy","lat":53.4807593,"lon":-2.2426305},
  {"the_date":"March 22 1995","the_city":"Norwich","the_country":"England","the_venue":"Waterfront Centre","lat":52.6308859,"lon":1.297355},
  {"the_date":"March 23 1995","the_city":"Northampton","the_country":"England","the_venue":"Roadmender","lat":52.240477,"lon":-0.9026560000000001},
  {"the_date":"March 24 1995","the_city":"London","the_country":"England","the_venue":"The Forum","lat":51.5073509,"lon":-0.1277583},
  {"the_date":"March 27 1995","the_city":"Toronto","the_country":"Canada","the_venue":"102.1 CFNY","lat":43.653226,"lon":-79.3831843},
  {"the_date":"March 28 1995","the_city":"Toronto","the_country":"Canada","the_venue":"MuchMusic","lat":43.653226,"lon":-79.3831843},
  {"the_date":"March 29 1995","the_city":"Toronto","the_country":"Canada","the_venue":"Sam The Record Man","lat":43.653226,"lon":-79.3831843},
  {"the_date":"March 30 1995","the_city":"Vancouver","the_country":"Canada","the_venue":"86 Street Music Hall","lat":49.2827291,"lon":-123.1207375},
  {"the_date":"April 01 1995","the_city":"Seattle, WA","the_country":"USA","the_venue":"Moe's","lat":47.6062095,"lon":-122.3320708},
  {"the_date":"April 03 1995","the_city":"San Francisco, CA","the_country":"USA","the_venue":"Justin Herman Plaza","lat":37.7749295,"lon":-122.4194155},
  {"the_date":"April 04 1995","the_city":"Santa Monica, CA","the_country":"USA","the_venue":"KCRW studios","lat":34.0194543,"lon":-118.4911912},
  {"the_date":"April 04 1995","the_city":"Los Angeles, CA","the_country":"USA","the_venue":"Tower Records","lat":34.0522342,"lon":-118.2436849},
  {"the_date":"April 05 1995","the_city":"Tinley Park, IL","the_country":"USA","the_venue":"World Music Theater","lat":41.5731442,"lon":-87.7932939},
  {"the_date":"April 06 1995","the_city":"Boston, MA","the_country":"USA","the_venue":"Venus de Milo","lat":42.3600825,"lon":-71.0588801},
  {"the_date":"April 07 1995","the_city":"New York, NY","the_country":"USA","the_venue":"Roseland Ballroom","lat":40.7127837,"lon":-74.0059413},
  {"the_date":"April 08 1995","the_city":"Atlanta, GA","the_country":"USA","the_venue":"Cat's Paw Studio","lat":33.7489954,"lon":-84.3879824},
  {"the_date":"April 09 1995","the_city":"Washington, DC","the_country":"USA","the_venue":"Washington Convention Center","lat":38.9071923,"lon":-77.0368707},
  {"the_date":"April 19 1995","the_city":"Bristol","the_country":"England","the_venue":"Anson Rooms","lat":51.454513,"lon":-2.58791},
  {"the_date":"April 20 1995","the_city":"Stockholm","the_country":"Sweden","the_venue":"Gino","lat":59.32932349999999,"lon":18.0685808},
  {"the_date":"April 21 1995","the_city":"Hilversum","the_country":"Netherlands","the_venue":"VPRO","lat":52.2291696,"lon":5.166897400000001},
  {"the_date":"April 24 1995","the_city":"Paris","the_country":"France","the_venue":"Europe 1 Top Live Session","lat":48.856614,"lon":2.3522219},
  {"the_date":"April 25 1995","the_city":"Paris","the_country":"France","the_venue":"Canal+ 'Nulle Part Ailleurs'","lat":48.856614,"lon":2.3522219},
  {"the_date":"April 26 1995","the_city":"Köln","the_country":"Germany","the_venue":"Luxor","lat":50.937531,"lon":6.9602786},
  {"the_date":"May 01 1995","the_city":"Rome","the_country":"Italy","the_venue":"Piazza San Giovanni","lat":41.9027835,"lon":12.4963655},
  {"the_date":"May 02 1995","the_city":"Rome","the_country":"Italy","the_venue":"RAI Studios","lat":41.9027835,"lon":12.4963655},
  {"the_date":"May 26 1995","the_city":"Boston, MA","the_country":"USA","the_venue":"Paradise Lounge","lat":42.3600825,"lon":-71.0588801},
  {"the_date":"May 27 1995","the_city":"Providence, RI","the_country":"USA","the_venue":"Lupo's Heartbreak Hotel","lat":41.8239891,"lon":-71.4128343},
  {"the_date":"May 28 1995","the_city":"Northhamton, MA","the_country":"USA","the_venue":"Pearl Street","lat":42.3250896,"lon":-72.64120129999999},
  {"the_date":"May 30 1995","the_city":"New Haven, CT","the_country":"USA","the_venue":"Toad's Place","lat":41.308274,"lon":-72.9278835},
  {"the_date":"June 01 1995","the_city":"New York, NY","the_country":"USA","the_venue":"Tramp's","lat":40.7127837,"lon":-74.0059413},
  {"the_date":"June 02 1995","the_city":"Washington, DC","the_country":"USA","the_venue":"The Black Cat","lat":38.9071923,"lon":-77.0368707},
  {"the_date":"June 03 1995","the_city":"Philadelphia, PA","the_country":"USA","the_venue":"Theatre of Living Arts","lat":39.9525839,"lon":-75.1652215},
  {"the_date":"June 04 1995","the_city":"Minneapolis, MN","the_country":"USA","the_venue":"First Avenue","lat":44.977753,"lon":-93.2650108},
  {"the_date":"June 05 1995","the_city":"Montreal, Quebec","the_country":"Canada","the_venue":"Spectrum","lat":45.5016889,"lon":-73.567256},
  {"the_date":"June 06 1995","the_city":"Toronto","the_country":"Canada","the_venue":"RPM Club","lat":43.653226,"lon":-79.3831843},
  {"the_date":"June 07 1995","the_city":"Cleveland, OH","the_country":"USA","the_venue":"Peabody's Down Under","lat":41.49932,"lon":-81.6943605},
  {"the_date":"June 09 1995","the_city":"Detroit, MI","the_country":"USA","the_venue":"St. Andrew's Hall","lat":42.331427,"lon":-83.0457538},
  {"the_date":"June 10 1995","the_city":"Chicago, IL","the_country":"USA","the_venue":"Metro","lat":41.8781136,"lon":-87.6297982},
  {"the_date":"June 12 1995","the_city":"New York City, NY","the_country":"USA","the_venue":"NBC Studios","lat":40.7127837,"lon":-74.0059413},
  {"the_date":"June 13 1995","the_city":"Denever, CO","the_country":"USA","the_venue":"Mercury Cafe","lat":39.7392358,"lon":-104.990251},
  {"the_date":"June 15 1995","the_city":"Hollywood, CA","the_country":"USA","the_venue":"The Palace","lat":34.0928092,"lon":-118.3286614},
  {"the_date":"June 18 1995","the_city":"Tokyo","the_country":"Japan","the_venue":"Shibuya Koukaido","lat":35.7090259,"lon":139.7319925},
  {"the_date":"June 19 1995","the_city":"Nagoya","the_country":"Japan","the_venue":"Diamond Hall","lat":35.1814464,"lon":136.906398},
  {"the_date":"June 20 1995","the_city":"Osaka","the_country":"Japan","the_venue":"Imperial Hall","lat":34.6937378,"lon":135.5021651},
  {"the_date":"June 22 1995","the_city":"Fukuoka","the_country":"Japan","the_venue":"Crossing Hall","lat":33.5903547,"lon":130.4017155},
  {"the_date":"June 24 1995","the_city":"Shinjuku","the_country":"Japan","the_venue":"Liquid Room","lat":35.6938401,"lon":139.7035494},
  {"the_date":"June 25 1995","the_city":"Shinjuku","the_country":"Japan","the_venue":"Liquid Room","lat":35.6938401,"lon":139.7035494},
  {"the_date":"June 27 1995","the_city":"Sapporo","the_country":"Japan","the_venue":"Xanadu","lat":43.0620958,"lon":141.3543763},
  {"the_date":"June 28 1995","the_city":"Kawasaki","the_country":"Japan","the_venue":"Club Citta","lat":35.5309058,"lon":139.7030511},
  {"the_date":"July 09 1995","the_city":"Vancouver, BC","the_country":"Canada","the_venue":"Starfish Room","lat":49.2827291,"lon":-123.1207375},
  {"the_date":"July 10 1995","the_city":"Seattle, WA","the_country":"USA","the_venue":"Sailors Union of the Pacific Hall","lat":47.6062095,"lon":-122.3320708},
  {"the_date":"July 13 1995","the_city":"San Francisco, CA","the_country":"USA","the_venue":"Slim's","lat":37.7749295,"lon":-122.4194155},
  {"the_date":"July 14 1995","the_city":"San Diego, CA","the_country":"USA","the_venue":"Soma","lat":32.715738,"lon":-117.1610838},
  {"the_date":"July 15 1995","the_city":"Mesa, AZ","the_country":"USA","the_venue":"Nile's Theater","lat":33.4151843,"lon":-111.8314724},
  {"the_date":"July 16 1995","the_city":"El Paso, TX","the_country":"USA","the_venue":"Metropolis","lat":31.7775757,"lon":-106.4424559},
  {"the_date":"July 17 1995","the_city":"Phoenix, AZ","the_country":"USA","the_venue":"The Library Cafe","lat":33.4483771,"lon":-112.0740373},
  {"the_date":"July 18 1995","the_city":"Lawrence, KS","the_country":"USA","the_venue":"The Bottleneck","lat":38.9716689,"lon":-95.2352501},
  {"the_date":"July 19 1995","the_city":"Memphis, TN","the_country":"USA","the_venue":"Mid-South Coliseum","lat":35.1495343,"lon":-90.0489801},
  {"the_date":"July 21 1995","the_city":"Atlanta, GA","the_country":"USA","the_venue":"The Masquerade","lat":33.7489954,"lon":-84.3879824},
  {"the_date":"July 22 1995","the_city":"Carrboro, NC","the_country":"USA","the_venue":"Cat's Cradle","lat":35.9101438,"lon":-79.0752895},
  {"the_date":"July 24 1995","the_city":"London","the_country":"Canada","the_venue":"Call The Office","lat":42.9869502,"lon":-81.243177},
  {"the_date":"July 25 1995","the_city":"Ottawa","the_country":"Canada","the_venue":"Barrymore Music Hall","lat":45.4215296,"lon":-75.69719309999999},
  {"the_date":"July 26 1995","the_city":"Cohoes, NY","the_country":"USA","the_venue":"Saratoga Winners","lat":42.7742446,"lon":-73.70011869999999},
  {"the_date":"July 30 1995","the_city":"Milton Keynes","the_country":"England","the_venue":"The National Bowl At Milton Keynes","lat":52.0406224,"lon":-0.7594171},
  {"the_date":"August 01 1995","the_city":"Berlin","the_country":"Germany","the_venue":"Waldbuhne","lat":52.52000659999999,"lon":13.404954},
  {"the_date":"August 03 1995","the_city":"Oslo","the_country":"Norway","the_venue":"Oslo Spektrum","lat":59.9138688,"lon":10.7522454},
  {"the_date":"August 04 1995","the_city":"Stockholm","the_country":"Sweden","the_venue":"Sjohistoriska Museet","lat":59.32932349999999,"lon":18.0685808},
  {"the_date":"August 06 1995","the_city":"Sicily","the_country":"Italy","the_venue":"Catania Stadium","lat":37.5999938,"lon":14.0153557},
  {"the_date":"August 09 1995","the_city":"Tel Aviv","the_country":"Israel","the_venue":"Ramat Gan Stadium","lat":32.0852999,"lon":34.78176759999999},
  {"the_date":"August 12 1995","the_city":"Paris","the_country":"France","the_venue":"TV : nulle part ailleurs","lat":48.856614,"lon":2.3522219},
  {"the_date":"August 13 1995","the_city":"Roskilde","the_country":"Denmark","the_venue":"Roskilde Festival","lat":55.64191,"lon":12.087845},
  {"the_date":"August 26 1995","the_city":"Dronten","the_country":"Belgium","the_venue":"Walibi World","lat":52.5346819,"lon":5.7218086},
  {"the_date":"August 27 1995","the_city":"Kiewit","the_country":"Belgium","the_venue":"Pukkelpop Festival","lat":50.96239,"lon":5.35609},
  {"the_date":"August 29 1995","the_city":"Helsinki","the_country":"Finland","the_venue":"Huvila-stage, Helsingin Juhlaviikot- festival","lat":60.17332440000001,"lon":24.9410248},
  {"the_date":"August 30 1995","the_city":"??","the_country":"Finland","the_venue":"??","lat":61.92410999999999,"lon":25.748151},
  {"the_date":"September 01 1995","the_city":"Winterthur","the_country":"Switzerland","the_venue":"Musikfestwochen","lat":47.49995,"lon":8.737564599999999},
  {"the_date":"September 08 1995","the_city":"Miami, FL","the_country":"USA","the_venue":"Miami Arena","lat":25.7616798,"lon":-80.1917902},
  {"the_date":"September 09 1995","the_city":"St Petersburg, FL","the_country":"USA","the_venue":"Florida Suncoast Dome","lat":27.773056,"lon":-82.64},
  {"the_date":"September 11 1995","the_city":"Nashville, TN","the_country":"USA","the_venue":"Starwood Amphitheater","lat":36.1626638,"lon":-86.7816016},
  {"the_date":"September 12 1995","the_city":"Birmingham, AL","the_country":"USA","the_venue":"Jefferson Civic Center","lat":33.5206608,"lon":-86.80248999999999},
  {"the_date":"September 13 1995","the_city":"Baton Rouge, LA","the_country":"USA","the_venue":"LSU Assembly Center","lat":30.4582829,"lon":-91.1403196},
  {"the_date":"September 15 1995","the_city":"Houston, TX","the_country":"USA","the_venue":"Cynthia Woods Mitchell Pavillion","lat":29.7604267,"lon":-95.3698028},
  {"the_date":"September 16 1995","the_city":"Woodlands, TX","the_country":"USA","the_venue":"Woodlands Pavillion","lat":27.5255818,"lon":-99.43324},
  {"the_date":"September 17 1995","the_city":"Austin, TX","the_country":"USA","the_venue":"Southpark Meadows","lat":30.267153,"lon":-97.7430608},
  {"the_date":"September 19 1995","the_city":"Dallas, TX","the_country":"USA","the_venue":"Reunion Arena","lat":32.7766642,"lon":-96.79698789999999},
  {"the_date":"September 20 1995","the_city":"Dallas, TX","the_country":"USA","the_venue":"Coca-Cola Starplex Amphitheatre","lat":32.7766642,"lon":-96.79698789999999},
  {"the_date":"September 22 1995","the_city":"St Louis, MO","the_country":"USA","the_venue":"Riverport Amphitheater","lat":38.6270025,"lon":-90.19940419999999},
  {"the_date":"September 23 1995","the_city":"St Louis, MO","the_country":"USA","the_venue":"Riverport Amphitheater","lat":38.6270025,"lon":-90.19940419999999},
  {"the_date":"September 24 1995","the_city":"Chicago, IL","the_country":"USA","the_venue":"The World","lat":41.8781136,"lon":-87.6297982},
  {"the_date":"September 26 1995","the_city":"Indianapolis, IN","the_country":"USA","the_venue":"Deer Creek","lat":39.768403,"lon":-86.158068},
  {"the_date":"September 27 1995","the_city":"East Lansing, MI","the_country":"USA","the_venue":"Breslin Center","lat":42.7369792,"lon":-84.48386540000001},
  {"the_date":"September 29 1995","the_city":"Buffalo, NY","the_country":"USA","the_venue":"Memorial Auditorium","lat":42.88644679999999,"lon":-78.8783689},
  {"the_date":"September 30 1995","the_city":"Hershey, PA","the_country":"USA","the_venue":"Hershey Park Stadium","lat":40.2859239,"lon":-76.65024679999999},
  {"the_date":"October 01 1995","the_city":"Hartford, CT","the_country":"USA","the_venue":"Meadows Amphitheater","lat":41.76371109999999,"lon":-72.6850932},
  {"the_date":"October 02 1995","the_city":"New York, NY","the_country":"USA","the_venue":"Mercury Lounge","lat":40.7127837,"lon":-74.0059413},
  {"the_date":"October 04 1995","the_city":"Denver, CO","the_country":"USA","the_venue":"Ogden Theater","lat":39.7392358,"lon":-104.990251},
  {"the_date":"October 05 1995","the_city":"Denver, CO","the_country":"USA","the_venue":"Fillmore Auditorium","lat":39.7392358,"lon":-104.990251},
  {"the_date":"October 07 1995","the_city":"Vancouver, BC","the_country":"Canada","the_venue":"PNE Forum","lat":49.2827291,"lon":-123.1207375},
  {"the_date":"October 08 1995","the_city":"Seattle, WA","the_country":"USA","the_venue":"Paramount Theater","lat":47.6062095,"lon":-122.3320708},
  {"the_date":"October 09 1995","the_city":"Salem, OR","the_country":"USA","the_venue":"Salem Armory","lat":44.9428975,"lon":-123.0350963},
  {"the_date":"October 11 1995","the_city":"Santa Cruz, CA","the_country":"USA","the_venue":"Civic Auditorium","lat":36.9741171,"lon":-122.0307963},
  {"the_date":"October 12 1995","the_city":"San Francisco, CA","the_country":"USA","the_venue":"Warfield","lat":37.7749295,"lon":-122.4194155},
  {"the_date":"October 15 1995","the_city":"Fresno, CA","the_country":"USA","the_venue":"The Fresno State Amphitheatre","lat":36.7468422,"lon":-119.7725868},
  {"the_date":"October 16 1995","the_city":"Los Angeles, CA","the_country":"USA","the_venue":"Hollywood Palladim","lat":34.0522342,"lon":-118.2436849},
  {"the_date":"October 17 1995","the_city":"Los Angeles, CA","the_country":"USA","the_venue":"Hollywood Palladim","lat":34.0522342,"lon":-118.2436849},
  {"the_date":"October 18 1995","the_city":"San Diego, CA","the_country":"USA","the_venue":"Fresno State Amphitheatre","lat":32.715738,"lon":-117.1610838},
  {"the_date":"October 20 1995","the_city":"Riverside, CA","the_country":"USA","the_venue":"UCR Recreation Center","lat":33.9533487,"lon":-117.3961564},
  {"the_date":"October 28 1995","the_city":"Los Angeles, CA","the_country":"USA","the_venue":"On the Edge","lat":34.0522342,"lon":-118.2436849},
  {"the_date":"October 31 1995","the_city":"Glasgow","the_country":"Scotland","the_venue":"Barrowland","lat":55.864237,"lon":-4.251806},
  {"the_date":"November 01 1995","the_city":"Leeds","the_country":"Scotland","the_venue":"Town and Country Club","lat":53.86014170000001,"lon":-1.6420924},
  {"the_date":"November 02 1995","the_city":"Manchester","the_country":"England","the_venue":"The Academy","lat":53.4807593,"lon":-2.2426305},
  {"the_date":"November 04 1995","the_city":"London","the_country":"England","the_venue":"Brixton Academy","lat":51.5073509,"lon":-0.1277583},
  {"the_date":"November 05 1995","the_city":"Nottingham","the_country":"England","the_venue":"Rock City","lat":52.95478319999999,"lon":-1.1581086},
  {"the_date":"November 06 1995","the_city":"Cambridge","the_country":"England","the_venue":"Corn Exchange","lat":52.205337,"lon":0.121817},
  {"the_date":"November 07 1995","the_city":"Southampton","the_country":"England","the_venue":"Guildhall","lat":50.90970040000001,"lon":-1.4043509},
  {"the_date":"November 09 1995","the_city":"Trilburg","the_country":"Netherlands","the_venue":"Noorderligt","lat":51.560596,"lon":5.0919143},
  {"the_date":"November 10 1995","the_city":"Paris","the_country":"France","the_venue":"Cafe de la Dance","lat":48.856614,"lon":2.3522219},
  {"the_date":"November 11 1995","the_city":"Strasbourg","the_country":"France","the_venue":"Laiterie","lat":48.5734053,"lon":7.752111299999999},
  {"the_date":"November 13 1995","the_city":"Dijon","the_country":"France","the_venue":"La Vapeur","lat":47.322047,"lon":5.04148},
  {"the_date":"November 14 1995","the_city":"Paris","the_country":"France","the_venue":"Virgin Megastore","lat":48.856614,"lon":2.3522219},
  {"the_date":"November 16 1995","the_city":"Valencia","the_country":"Spain","the_venue":"Arena Auditorium","lat":39.4699075,"lon":-0.3762881},
  {"the_date":"November 17 1995","the_city":"Barcelona","the_country":"Spain","the_venue":"Zeleste","lat":41.3850639,"lon":2.1734035},
  {"the_date":"November 18 1995","the_city":"Madrid","the_country":"Spain","the_venue":"La Riviera","lat":40.4167754,"lon":-3.7037902},
  {"the_date":"November 20 1995","the_city":"Montpellier","the_country":"France","the_venue":"Rockstore","lat":43.610769,"lon":3.876716},
  {"the_date":"November 21 1995","the_city":"Milan","the_country":"Italy","the_venue":"Propaganda","lat":45.4654219,"lon":9.1859243},
  {"the_date":"November 22 1995","the_city":"Firenza","the_country":"Italy","the_venue":"Tenax","lat":43.7710332,"lon":11.2480006},
  {"the_date":"November 23 1995","the_city":"Cesena","the_country":"Italy","the_venue":"Vidia Club","lat":44.1396438,"lon":12.2464292},
  {"the_date":"November 25 1995","the_city":"Munich","the_country":"Germany","the_venue":"Riem Airport","lat":48.1351253,"lon":11.5819806},
  {"the_date":"November 26 1995","the_city":"Frankfurt","the_country":"Germany","the_venue":"Batschkapp","lat":50.1109221,"lon":8.6821267},
  {"the_date":"November 28 1995","the_city":"Cologne","the_country":"Germany","the_venue":"E-Werk","lat":50.937531,"lon":6.9602786},
  {"the_date":"November 29 1995","the_city":"Hamburg","the_country":"Germany","the_venue":"Markthalle","lat":53.5510846,"lon":9.9936818},
  {"the_date":"December 01 1995","the_city":"Stockholm","the_country":"Sweden","the_venue":"Gino","lat":59.32932349999999,"lon":18.0685808},
  {"the_date":"December 02 1995","the_city":"Lund","the_country":"Sweden","the_venue":"Mejeriet","lat":55.7046601,"lon":13.1910073},
  {"the_date":"December 04 1995","the_city":"Amsterdam","the_country":"Netherlands","the_venue":"Paradiso","lat":52.3702157,"lon":4.895167900000001},
  {"the_date":"December 05 1995","the_city":"Brussels","the_country":"Belgium","the_venue":"Luna Theatre","lat":50.8503396,"lon":4.3517103},
  {"the_date":"December 12 1995","the_city":"Toronto","the_country":"Canada","the_venue":"Warehouse","lat":43.653226,"lon":-79.3831843},
  {"the_date":"December 13 1995","the_city":"Montreal","the_country":"Canada","the_venue":"Spectrum","lat":45.5016889,"lon":-73.567256},
  {"the_date":"December 15 1995","the_city":"Berkeley, CA","the_country":"USA","the_venue":"Berkeley Community Center","lat":37.8715926,"lon":-122.272747},
  {"the_date":"December 16 1995","the_city":"San Jose, CA","the_country":"USA","the_venue":"Events Center","lat":37.3382082,"lon":-121.8863286},
  {"the_date":"December 17 1995","the_city":"Los Angeles, CA","the_country":"USA","the_venue":"Universal Amphitheater","lat":34.0522342,"lon":-118.2436849},
  {"the_date":"December 18 1995","the_city":"Los Angeles, CA","the_country":"USA","the_venue":"Universal Amphitheater","lat":34.0522342,"lon":-118.2436849},
  {"the_date":"March 14 1996","the_city":"Los Angeles, CA","the_country":"USA","the_venue":"The Troubadour","lat":34.0522342,"lon":-118.2436849},
  {"the_date":"March 15 1996","the_city":"Hollywood, CA","the_country":"USA","the_venue":"The Tonight Show with Jay Leno","lat":34.0928092,"lon":-118.3286614},
  {"the_date":"March 16 1996","the_city":"Austin, TX","the_country":"USA","the_venue":"??","lat":30.267153,"lon":-97.7430608},
  {"the_date":"March 18 1996","the_city":"New York, NY","the_country":"USA","the_venue":"MTV Studios","lat":40.7127837,"lon":-74.0059413},
  {"the_date":"March 20 1996","the_city":"Edmonton","the_country":"Canada","the_venue":"University of Alberta","lat":53.544389,"lon":-113.4909267},
  {"the_date":"March 21 1996","the_city":"Calgary","the_country":"Canada","the_venue":"Macewan Hall, University of Calgary","lat":51.0486151,"lon":-114.0708459},
  {"the_date":"March 22 1996","the_city":"Vancouver","the_country":"Canada","the_venue":"CBC Studio","lat":49.2827291,"lon":-123.1207375},
  {"the_date":"March 23 1996","the_city":"Vancouver","the_country":"Canada","the_venue":"The Rage","lat":49.2827291,"lon":-123.1207375},
  {"the_date":"March 24 1996","the_city":"Seattle, WA","the_country":"USA","the_venue":"DV8","lat":47.6062095,"lon":-122.3320708},
  {"the_date":"March 25 1996","the_city":"Portland, OR","the_country":"USA","the_venue":"La Luna","lat":45.5230622,"lon":-122.6764816},
  {"the_date":"March 27 1996","the_city":"San Francisco, CA","the_country":"USA","the_venue":"Fillmore","lat":37.7749295,"lon":-122.4194155},
  {"the_date":"March 28 1996","the_city":"Palo Alto, CA","the_country":"USA","the_venue":"The Edge","lat":37.4418834,"lon":-122.1430195},
  {"the_date":"March 29 1996","the_city":"Los Angeles, CA","the_country":"USA","the_venue":"The Wiltern","lat":34.0522342,"lon":-118.2436849},
  {"the_date":"March 29 1996","the_city":"Los Angeles, CA","the_country":"USA","the_venue":"KROQ studios","lat":34.0522342,"lon":-118.2436849},
  {"the_date":"March 30 1996","the_city":"San Diego, CA","the_country":"USA","the_venue":"Soma","lat":32.715738,"lon":-117.1610838},
  {"the_date":"April 03 1996","the_city":"Minneapolis, MN","the_country":"USA","the_venue":"First Avenue","lat":44.977753,"lon":-93.2650108},
  {"the_date":"April 04 1996","the_city":"Chicago, IL","the_country":"USA","the_venue":"Metro","lat":41.8781136,"lon":-87.6297982},
  {"the_date":"April 05 1996","the_city":"Detroit, MI","the_country":"USA","the_venue":"Sanctum","lat":42.331427,"lon":-83.0457538},
  {"the_date":"April 06 1996","the_city":"Toronto","the_country":"Canada","the_venue":"Varsity Arena","lat":43.653226,"lon":-79.3831843},
  {"the_date":"April 09 1996","the_city":"Cleveland, OH","the_country":"USA","the_venue":"Odeon","lat":41.49932,"lon":-81.6943605},
  {"the_date":"April 10 1996","the_city":"Rockville, MD","the_country":"USA","the_venue":"WHFS Just Passing Through","lat":39.0839973,"lon":-77.1527578},
  {"the_date":"April 10 1996","the_city":"Washington DC","the_country":"USA","the_venue":"9:30 Club","lat":38.9071923,"lon":-77.0368707},
  {"the_date":"April 11 1996","the_city":"Philadelphia, PA","the_country":"USA","the_venue":"Trocadero","lat":39.9525839,"lon":-75.1652215},
  {"the_date":"April 12 1996","the_city":"New York, NY","the_country":"USA","the_venue":"Roseland","lat":40.7127837,"lon":-74.0059413},
  {"the_date":"April 13 1996","the_city":"Boston, MA","the_country":"USA","the_venue":"The Avalon","lat":42.3600825,"lon":-71.0588801},
  {"the_date":"April 16 1996","the_city":"Paris","the_country":"France","the_venue":"La Cigale","lat":48.856614,"lon":2.3522219},
  {"the_date":"April 17 1996","the_city":"Lyon","the_country":"France","the_venue":"Le Transbordeur","lat":45.764043,"lon":4.835659},
  {"the_date":"May 04 1996","the_city":"Los Angeles, CA","the_country":"USA","the_venue":"Saturday Night Special taping.","lat":34.0522342,"lon":-118.2436849},
  {"the_date":"May 26 1996","the_city":"Paris","the_country":"France","the_venue":"Bataclan","lat":48.856614,"lon":2.3522219},
  {"the_date":"May 27 1996","the_city":"Landgraaf","the_country":"Netherlands","the_venue":"Megaland","lat":50.8927646,"lon":6.0224085},
  {"the_date":"July 02 1996","the_city":"Oxford","the_country":"England","the_venue":"Zodiac","lat":51.7520209,"lon":-1.2577263},
  {"the_date":"July 03 1996","the_city":"Oxford","the_country":"England","the_venue":"Zodiac","lat":51.7520209,"lon":-1.2577263},
  {"the_date":"July 04 1996","the_city":"Manchester","the_country":"England","the_venue":"Manchester Apollo","lat":53.4807593,"lon":-2.2426305},
  {"the_date":"July 05 1996","the_city":"Dusseldorf","the_country":"Germany","the_venue":"Tor-3","lat":51.2277411,"lon":6.7734556},
  {"the_date":"July 06 1996","the_city":"Torhout","the_country":"Belgium","the_venue":"??","lat":51.06498,"lon":3.10157},
  {"the_date":"July 07 1996","the_city":"Werchter","the_country":"Belgium","the_venue":"??","lat":50.97278000000001,"lon":4.70007},
  {"the_date":"July 11 1996","the_city":"Manchester","the_country":"England","the_venue":"Apollo","lat":53.4807593,"lon":-2.2426305},
  {"the_date":"July 13 1996","the_city":"Glasgow","the_country":"Scotland","the_venue":"Strathclyde Park","lat":55.864237,"lon":-4.251806},
  {"the_date":"July 26 1996","the_city":"Dublin","the_country":"Ireland","the_venue":"Dublin Olympia","lat":53.3498053,"lon":-6.2603097},
  {"the_date":"July 28 1996","the_city":"Galway","the_country":"Ireland","the_venue":"Castlegar Sportsgrounds","lat":53.2705588,"lon":-9.0566677},
  {"the_date":"August 12 1996","the_city":"Buffalo","the_country":"USA","the_venue":"Darien Lake Performing Arts Center","lat":42.88644679999999,"lon":-78.8783689},
  {"the_date":"August 13 1996","the_city":"Mansfield, MA","the_country":"USA","the_venue":"Great Woods/Tweeter Center","lat":42.03345650000001,"lon":-71.2190578},
  {"the_date":"August 14 1996","the_city":"Mansfield, MA","the_country":"USA","the_venue":"Great Woods/Tweeter Center","lat":42.03345650000001,"lon":-71.2190578},
  {"the_date":"August 16 1996","the_city":"Wantaugh, NY","the_country":"USA","the_venue":"Jones Beach Amphitheater","lat":40.6837121,"lon":-73.5101258},
  {"the_date":"August 17 1996","the_city":"Wantaugh, NY","the_country":"USA","the_venue":"Jones Beach Amphitheater","lat":40.6837121,"lon":-73.5101258},
  {"the_date":"August 19 1996","the_city":"East Rutherford, NJ","the_country":"USA","the_venue":"Continental Arena","lat":40.833989,"lon":-74.0970865},
  {"the_date":"August 20 1996","the_city":"Hartford, CT","the_country":"USA","the_venue":"Meadows Music Theater","lat":41.76371109999999,"lon":-72.6850932},
  {"the_date":"August 22 1996","the_city":"Columbia, MD","the_country":"USA","the_venue":"Merriweather Post Pavillion","lat":39.2037144,"lon":-76.86104619999999},
  {"the_date":"August 23 1996","the_city":"Philadelphia, PA","the_country":"USA","the_venue":"The Spectrum","lat":39.9525839,"lon":-75.1652215},
  {"the_date":"August 25 1996","the_city":"Manassas, VA","the_country":"USA","the_venue":"Pavillion at Stoneridge","lat":38.7509488,"lon":-77.47526669999999},
  {"the_date":"August 26 1996","the_city":"Hershey, PA","the_country":"USA","the_venue":"Hershey Park Stadium","lat":40.2859239,"lon":-76.65024679999999},
  {"the_date":"August 27 1996","the_city":"Pittsburgh, PA","the_country":"USA","the_venue":"Starlake Amphitheater","lat":40.44062479999999,"lon":-79.9958864},
  {"the_date":"August 29 1996","the_city":"Clarkeston, RI","the_country":"USA","the_venue":"Pine Knob Music Theater","lat":41.8434609,"lon":-71.4198947},
  {"the_date":"October 10 1996","the_city":"London","the_country":"England","the_venue":"Tramshed","lat":51.5073509,"lon":-0.1277583},
  {"the_date":"May 15 1997","the_city":"Lisbon","the_country":"Portugal","the_venue":"Garage","lat":38.7222524,"lon":-9.1393366},
  {"the_date":"May 16 1997","the_city":"Lisbon","the_country":"Portugal","the_venue":"Garage","lat":38.7222524,"lon":-9.1393366},
  {"the_date":"May 17 1997","the_city":"Lisbon","the_country":"Portugal","the_venue":"Garage","lat":38.7222524,"lon":-9.1393366},
  {"the_date":"May 22 1997","the_city":"Barcelona","the_country":"Spain","the_venue":"Zeleste","lat":41.3850639,"lon":2.1734035},
  {"the_date":"May 24 1997","the_city":"Barcelona","the_country":"Spain","the_venue":"Zeleste","lat":41.3850639,"lon":2.1734035},
  {"the_date":"May 28 1997","the_city":"London","the_country":"England","the_venue":"BBC Broadcasting House","lat":51.5073509,"lon":-0.1277583},
  {"the_date":"May 31 1997","the_city":"London","the_country":"England","the_venue":"BBC Broadcasting House","lat":51.5073509,"lon":-0.1277583},
  {"the_date":"June 02 1997","the_city":"Toronto","the_country":"Canada","the_venue":"CFNY","lat":43.653226,"lon":-79.3831843},
  {"the_date":"June 02 1997","the_city":"Toronto","the_country":"Canada","the_venue":"Opera House","lat":43.653226,"lon":-79.3831843},
  {"the_date":"June 03 1997","the_city":"Toronto","the_country":"Canada","the_venue":"MuchMusic","lat":43.653226,"lon":-79.3831843},
  {"the_date":"June 07 1997","the_city":"Randall's Island, NY","the_country":"USA","the_venue":"Downing Stadium","lat":40.7932271,"lon":-73.92128579999999},
  {"the_date":"June 09 1997","the_city":"New York, NY","the_country":"USA","the_venue":"Irving Plaza","lat":40.7127837,"lon":-74.0059413},
  {"the_date":"June 13 1997","the_city":"Los Angeles, CA","the_country":"USA","the_venue":"Troubadour","lat":34.0522342,"lon":-118.2436849},
  {"the_date":"June 14 1997","the_city":"Irvine Meadows, CA","the_country":"USA","the_venue":"KROQ Weenie Roast","lat":33.6875868,"lon":-117.7715657},
  {"the_date":"June 19 1997","the_city":"Belfast","the_country":"Northern Ireland","the_venue":"Queens University of Belfast","lat":54.59728500000001,"lon":-5.93012},
  {"the_date":"June 20 1997","the_city":"Dublin","the_country":"Ireland","the_venue":"2FM","lat":53.3498053,"lon":-6.2603097},
  {"the_date":"June 21 1997","the_city":"Dubin","the_country":"Ireland","the_venue":"Royal Dublin Showgrounds","lat":53.3498053,"lon":-6.2603097},
  {"the_date":"June 24 1997","the_city":"Utrecht","the_country":"Netherlands","the_venue":"The MCV","lat":52.09073739999999,"lon":5.1214201},
  {"the_date":"June 26 1997","the_city":"Roskilde","the_country":"Denmark","the_venue":"Orange Scene","lat":55.64191,"lon":12.087845},
  {"the_date":"June 28 1997","the_city":"Glastonbury","the_country":"England","the_venue":"Main Stage","lat":51.147427,"lon":-2.718454},
  {"the_date":"July 01 1997","the_city":"Hamburg","the_country":"Germany","the_venue":"Grosse Freiheit","lat":53.5510846,"lon":9.9936818},
  {"the_date":"July 02 1997","the_city":"Cologne","the_country":"Germany","the_venue":"E-Werk","lat":50.937531,"lon":6.9602786},
  {"the_date":"July 04 1997","the_city":"Belfort","the_country":"France","the_venue":"Les EurockÈennes","lat":47.63967400000001,"lon":6.863849},
  {"the_date":"July 05 1997","the_city":"Torhout","the_country":"Belgium","the_venue":"Festival Field","lat":51.06498,"lon":3.10157},
  {"the_date":"July 06 1997","the_city":"Werchter","the_country":"Belgium","the_venue":"??","lat":50.97278000000001,"lon":4.70007},
  {"the_date":"July 25 1997","the_city":"Hollywood, CA","the_country":"USA","the_venue":"The Tonight Show with Jay Leno","lat":34.0928092,"lon":-118.3286614},
  {"the_date":"July 26 1997","the_city":"Los Angeles, CA","the_country":"USA","the_venue":"Wiltern Theater","lat":34.0522342,"lon":-118.2436849},
  {"the_date":"July 27 1997","the_city":"San Francisco, CA","the_country":"USA","the_venue":"Warfield Theater","lat":37.7749295,"lon":-122.4194155},
  {"the_date":"July 31 1997","the_city":"Vancouver","the_country":"Canada","the_venue":"The Rage","lat":49.2827291,"lon":-123.1207375},
  {"the_date":"August 02 1997","the_city":"Bremerton, WA","the_country":"USA","the_venue":"Kitsap County Fairgrounds","lat":47.5673202,"lon":-122.6329356},
  {"the_date":"August 03 1997","the_city":"Estacada, OR","the_country":"USA","the_venue":"TimberBowl","lat":45.29,"lon":-122.3344},
  {"the_date":"August 05 1997","the_city":"Minneapolis, MN","the_country":"USA","the_venue":"State Theater","lat":44.977753,"lon":-93.2650108},
  {"the_date":"August 07 1997","the_city":"Chicago, IL","the_country":"USA","the_venue":"Riviera","lat":41.8781136,"lon":-87.6297982},
  {"the_date":"August 08 1997","the_city":"St Louis, MO","the_country":"USA","the_venue":"Galaxy","lat":38.6270025,"lon":-90.19940419999999},
  {"the_date":"August 10 1997","the_city":"Atlanta, GA","the_country":"USA","the_venue":"Masquerade","lat":33.7489954,"lon":-84.3879824},
  {"the_date":"August 12 1997","the_city":"Washington, DC","the_country":"USA","the_venue":"9:30 Club","lat":38.9071923,"lon":-77.0368707},
  {"the_date":"August 13 1997","the_city":"Pittsburgh, PA","the_country":"USA","the_venue":"Metropol","lat":40.44062479999999,"lon":-79.9958864},
  {"the_date":"August 15 1997","the_city":"Detroit, MI","the_country":"USA","the_venue":"State Theater","lat":42.331427,"lon":-83.0457538},
  {"the_date":"August 16 1997","the_city":"Cleveland, OH","the_country":"USA","the_venue":"Lakewood Civic Auditorium","lat":41.49932,"lon":-81.6943605},
  {"the_date":"August 18 1997","the_city":"London","the_country":"Canada","the_venue":"Centennial Hall","lat":42.9869502,"lon":-81.243177},
  {"the_date":"August 19 1997","the_city":"Toronto","the_country":"Canada","the_venue":"Arrow Hall","lat":43.653226,"lon":-79.3831843},
  {"the_date":"August 20 1997","the_city":"Ottawa","the_country":"Canada","the_venue":"Congress Center","lat":45.4215296,"lon":-75.69719309999999},
  {"the_date":"August 22 1997","the_city":"Montreal","the_country":"Canada","the_venue":"Metropolis","lat":45.5016889,"lon":-73.567256},
  {"the_date":"August 23 1997","the_city":"Boston, MA","the_country":"USA","the_venue":"Harborlights Pavilion","lat":42.3600825,"lon":-71.0588801},
  {"the_date":"August 24 1997","the_city":"Philadelphia, PA","the_country":"USA","the_venue":"Electric Factory","lat":39.9525839,"lon":-75.1652215},
  {"the_date":"August 26 1997","the_city":"New York, NY","the_country":"USA","the_venue":"Hammerstein Ballroom","lat":40.7127837,"lon":-74.0059413},
  {"the_date":"August 28 1997","the_city":"New York, NY","the_country":"USA","the_venue":"Ed Sullivan Theater","lat":40.7127837,"lon":-74.0059413},
  {"the_date":"September 02 1997","the_city":"Doncaster","the_country":"England","the_venue":"The Dome","lat":53.52282,"lon":-1.128462},
  {"the_date":"September 03 1997","the_city":"London","the_country":"England","the_venue":"Astoria Theater","lat":51.5073509,"lon":-0.1277583},
  {"the_date":"September 04 1997","the_city":"Bridlington","the_country":"England","the_venue":"Bridlington Spa","lat":54.08535,"lon":-0.198802},
  {"the_date":"September 05 1997","the_city":"Dundee","the_country":"Scotland","the_venue":"Caird Hall","lat":56.462018,"lon":-2.970721},
  {"the_date":"September 07 1997","the_city":"Blackpool","the_country":"England","the_venue":"Empress Ballroom","lat":53.8175053,"lon":-3.0356748},
  {"the_date":"September 08 1997","the_city":"Stoke","the_country":"England","the_venue":"Trentham Gardens","lat":53.002668,"lon":-2.179404},
  {"the_date":"September 09 1997","the_city":"Gloucester","the_country":"England","the_venue":"Leisure Center","lat":51.8642449,"lon":-2.238156},
  {"the_date":"September 11 1997","the_city":"Plymouth","the_country":"England","the_venue":"Pavillions","lat":50.3754565,"lon":-4.1426565},
  {"the_date":"September 12 1997","the_city":"Reading","the_country":"England","the_venue":"Rivermead","lat":51.4542645,"lon":-0.9781303},
  {"the_date":"September 13 1997","the_city":"London","the_country":"England","the_venue":"Brixton Academy","lat":51.5073509,"lon":-0.1277583},
  {"the_date":"September 14 1997","the_city":"Brighton","the_country":"England","the_venue":"Centre","lat":50.82253000000001,"lon":-0.137163},
  {"the_date":"October 12 1997","the_city":"Lille","the_country":"France","the_venue":"Zenith Arena","lat":50.62925,"lon":3.057256},
  {"the_date":"October 13 1997","the_city":"Rotterdam","the_country":"Netherlands","the_venue":"Ahoy","lat":51.9244201,"lon":4.4777325},
  {"the_date":"October 14 1997","the_city":"Brussels","the_country":"Belgium","the_venue":"Vorst Nationaal/Foret National","lat":50.8503396,"lon":4.3517103},
  {"the_date":"October 16 1997","the_city":"Zurich","the_country":"Switzerland","the_venue":"Spirgatan","lat":47.3686498,"lon":8.539182499999999},
  {"the_date":"October 17 1997","the_city":"Strasbourg","the_country":"France","the_venue":"Salle de Schiltigheim","lat":48.5734053,"lon":7.752111299999999},
  {"the_date":"October 18 1997","the_city":"Paris","the_country":"France","the_venue":"La Zenith","lat":48.856614,"lon":2.3522219},
  {"the_date":"October 20 1997","the_city":"Grenoble","the_country":"France","the_venue":"Summin","lat":45.188529,"lon":5.724524},
  {"the_date":"October 21 1997","the_city":"Marseille","the_country":"France","the_venue":"Dome Zenith","lat":43.296482,"lon":5.36978},
  {"the_date":"October 22 1997","the_city":"Toulouse","the_country":"France","the_venue":"Palais des Sports","lat":43.604652,"lon":1.444209},
  {"the_date":"October 24 1997","the_city":"Madrid","the_country":"Spain","the_venue":"Sala Canciller","lat":40.4167754,"lon":-3.7037902},
  {"the_date":"October 25 1997","the_city":"Barcelona","the_country":"Spain","the_venue":"Zeleste","lat":41.3850639,"lon":2.1734035},
  {"the_date":"October 26 1997","the_city":"Bergara","the_country":"Spain","the_venue":"Sala Jam","lat":43.1259269,"lon":-2.4232063},
  {"the_date":"October 28 1997","the_city":"Milan","the_country":"Italy","the_venue":"Palavobis","lat":45.4654219,"lon":9.1859243},
  {"the_date":"October 29 1997","the_city":"Modena","the_country":"Italy","the_venue":"Vox Club","lat":44.6488366,"lon":10.9200867},
  {"the_date":"October 30 1997","the_city":"Firenze","the_country":"Italy","the_venue":"Florence SportPalace","lat":43.7710332,"lon":11.2480006},
  {"the_date":"November 01 1997","the_city":"Munich","the_country":"Germany","the_venue":"Strom","lat":48.1351253,"lon":11.5819806},
  {"the_date":"November 02 1997","the_city":"Bonn","the_country":"Germany","the_venue":"Biskuithalle","lat":50.73743,"lon":7.0982068},
  {"the_date":"November 03 1997","the_city":"Berlin","the_country":"Germany","the_venue":"Huxley's Neue Welt","lat":52.52000659999999,"lon":13.404954},
  {"the_date":"November 05 1997","the_city":"Stockholm","the_country":"Sweden","the_venue":"Hovet","lat":59.32932349999999,"lon":18.0685808},
  {"the_date":"November 06 1997","the_city":"Oslo","the_country":"Norway","the_venue":"Rockefeller","lat":59.9138688,"lon":10.7522454},
  {"the_date":"November 07 1997","the_city":"Lund","the_country":"Sweden","the_venue":"Victoriahallen","lat":55.7046601,"lon":13.1910073},
  {"the_date":"November 09 1997","the_city":"Copenhagen","the_country":"Denmark","the_venue":"KB Hallen","lat":55.6760968,"lon":12.5683371},
  {"the_date":"November 10 1997","the_city":"Hannover","the_country":"Germany","the_venue":"Capitol","lat":52.3758916,"lon":9.732010400000002},
  {"the_date":"November 11 1997","the_city":"Offenbach","the_country":"Germany","the_venue":"Stadthalle","lat":50.09563620000001,"lon":8.776084299999999},
  {"the_date":"November 13 1997","the_city":"Offenbach","the_country":"Germany","the_venue":"Stadthalle","lat":50.09563620000001,"lon":8.776084299999999},
  {"the_date":"November 15 1997","the_city":"Cardiff","the_country":"Wales","the_venue":"Cardiff International Arena","lat":51.48158100000001,"lon":-3.17909},
  {"the_date":"November 16 1997","the_city":"London","the_country":"England","the_venue":"Wembley Arena","lat":51.5073509,"lon":-0.1277583},
  {"the_date":"November 17 1997","the_city":"Manchester","the_country":"England","the_venue":"Manchester Nynex Arena","lat":53.4807593,"lon":-2.2426305},
  {"the_date":"November 19 1997","the_city":"Birmingham","the_country":"England","the_venue":"Birmingham NEC","lat":52.48624299999999,"lon":-1.890401},
  {"the_date":"November 20 1997","the_city":"Aberdeen","the_country":"Scotland","the_venue":"Aberdeen Exhibition Centre","lat":57.149717,"lon":-2.094278},
  {"the_date":"December 19 1997","the_city":"New York, NY","the_country":"USA","the_venue":"Hammerstein Ballroom","lat":40.7127837,"lon":-74.0059413},
  {"the_date":"January 13 1998","the_city":"Sendai","the_country":"Japan","the_venue":"Sendai Ismity21","lat":38.268215,"lon":140.8693558},
  {"the_date":"January 14 1998","the_city":"Niigata","the_country":"Japan","the_venue":"Niigata Phase","lat":37.9161924,"lon":139.0364126},
  {"the_date":"January 15 1998","the_city":"Nagano","the_country":"Japan","the_venue":"Matsumoto-shi Shakai Bunkakaikan","lat":36.6485496,"lon":138.1942432},
  {"the_date":"January 17 1998","the_city":"Tokyo","the_country":"Japan","the_venue":"Akasaka Blitz","lat":35.7090259,"lon":139.7319925},
  {"the_date":"January 18 1998","the_city":"Tokyo","the_country":"Japan","the_venue":"Tokyo Kokusai Forum","lat":35.7090259,"lon":139.7319925},
  {"the_date":"January 19 1998","the_city":"Nagoya","the_country":"Japan","the_venue":"Club Diamond Hall","lat":35.1814464,"lon":136.906398},
  {"the_date":"January 20 1998","the_city":"Fukuoka","the_country":"Japan","the_venue":"Fukuoka Crossing Hall","lat":33.5903547,"lon":130.4017155},
  {"the_date":"January 22 1998","the_city":"Osaka","the_country":"Japan","the_venue":"Osaka Kousei Nenkin Kaikan","lat":34.6937378,"lon":135.5021651},
  {"the_date":"January 23 1998","the_city":"Tokyo","the_country":"Japan","the_venue":"Akasaka Blitz","lat":35.7090259,"lon":139.7319925},
  {"the_date":"January 24 1998","the_city":"Tokyo","the_country":"Japan","the_venue":"Akasaka Blitz","lat":35.7090259,"lon":139.7319925},
  {"the_date":"January 28 1998","the_city":"Auckland","the_country":"New Zealand","the_venue":"New Zealand Expo Centre","lat":-36.8484597,"lon":174.7633315},
  {"the_date":"January 29 1998","the_city":"Wellington","the_country":"New Zealand","the_venue":"Queen's Wharfs Events Centre","lat":-41.2864603,"lon":174.776236},
  {"the_date":"February 01 1998","the_city":"Melbourne","the_country":"Australia","the_venue":"Festivall Hall","lat":-37.814107,"lon":144.96328},
  {"the_date":"February 04 1998","the_city":"Sydney","the_country":"Australia","the_venue":"Entertainment Centre","lat":-33.8674869,"lon":151.2069902},
  {"the_date":"February 06 1998","the_city":"Brisbane","the_country":"Australia","the_venue":"Festivall Hall","lat":-27.4710107,"lon":153.0234489},
  {"the_date":"February 08 1998","the_city":"Adelaide","the_country":"Australia","the_venue":"Entertainment Centre","lat":-34.92862119999999,"lon":138.5999594},
  {"the_date":"February 10 1998","the_city":"Perth","the_country":"Australia","the_venue":"Entertainment Centre","lat":-31.9535132,"lon":115.8570471},
  {"the_date":"March 28 1998","the_city":"Houston, TX","the_country":"USA","the_venue":"Aerial Theater at Bayou Place","lat":29.7604267,"lon":-95.3698028},
  {"the_date":"March 29 1998","the_city":"Dallas, TX","the_country":"USA","the_venue":"Music Hall at Fair Park","lat":32.7766642,"lon":-96.79698789999999},
  {"the_date":"April 01 1998","the_city":"Los Angeles, CA","the_country":"USA","the_venue":"Universal Amphitheater","lat":34.0522342,"lon":-118.2436849},
  {"the_date":"April 02 1998","the_city":"San Francisco, CA","the_country":"USA","the_venue":"Bill Grahm Civic Center","lat":37.7749295,"lon":-122.4194155},
  {"the_date":"April 04 1998","the_city":"Salem, OR","the_country":"USA","the_venue":"Salem Armory Auditorium","lat":44.9428975,"lon":-123.0350963},
  {"the_date":"April 05 1998","the_city":"Seattle, WA","the_country":"USA","the_venue":"Paramount Theater","lat":47.6062095,"lon":-122.3320708},
  {"the_date":"April 06 1998","the_city":"Vancouver","the_country":"Canada","the_venue":"Pacific Coliseum","lat":49.2827291,"lon":-123.1207375},
  {"the_date":"April 08 1998","the_city":"Calgary","the_country":"Canada","the_venue":"Max Bell Arena","lat":51.0486151,"lon":-114.0708459},
  {"the_date":"April 10 1998","the_city":"Chicago, IL","the_country":"USA","the_venue":"Rosement Theater","lat":41.8781136,"lon":-87.6297982},
  {"the_date":"April 12 1998","the_city":"Toronto","the_country":"Canada","the_venue":"Maple Leaf Gardens","lat":43.653226,"lon":-79.3831843},
  {"the_date":"April 13 1998","the_city":"Montreal","the_country":"Canada","the_venue":"Molson Centre","lat":45.5016889,"lon":-73.567256},
  {"the_date":"April 15 1998","the_city":"Worcester, MA","the_country":"USA","the_venue":"Worcester Centrum","lat":42.2625932,"lon":-71.8022934},
  {"the_date":"April 17 1998","the_city":"New York, NY","the_country":"USA","the_venue":"Radio City Music Hall","lat":40.7127837,"lon":-74.0059413},
  {"the_date":"April 18 1998","the_city":"New York, NY","the_country":"USA","the_venue":"Radio City Music Hall","lat":40.7127837,"lon":-74.0059413},
  {"the_date":"June 13 1998","the_city":"Washington, DC","the_country":"USA","the_venue":"9:30 Club","lat":38.9071923,"lon":-77.0368707},
  {"the_date":"June 14 1998","the_city":"Washington, DC","the_country":"USA","the_venue":"RFK Stadium","lat":38.9071923,"lon":-77.0368707},
  {"the_date":"June 15 1998","the_city":"Washington, DC","the_country":"USA","the_venue":"West Capitol Lawn","lat":38.9071923,"lon":-77.0368707},
  {"the_date":"December 10 1998","the_city":"Paris","the_country":"France","the_venue":"Bercy Stadium","lat":48.856614,"lon":2.3522219},
  {"the_date":"June 13 1999","the_city":"Amsterdam","the_country":"Netherlands","the_venue":"RAI Parkhal","lat":52.3702157,"lon":4.895167900000001},
  {"the_date":"December 09 1999","the_city":"London","the_country":"England","the_venue":"studio","lat":51.5073509,"lon":-0.1277583},
  {"the_date":"February 10 2000","the_city":"Oxford","the_country":"England","the_venue":"studio","lat":51.7520209,"lon":-1.2577263},
  {"the_date":"March 23 2000","the_city":"Oxford","the_country":"England","the_venue":"studio","lat":51.7520209,"lon":-1.2577263},
  {"the_date":"June 13 2000","the_city":"Arles","the_country":"France","the_venue":"Theatre Antique d'Arles","lat":43.676647,"lon":4.6277769},
  {"the_date":"June 14 2000","the_city":"Vaison La Romaine","the_country":"France","the_venue":"Theatre Antique de Vaison","lat":44.240968,"lon":5.075197999999999},
  {"the_date":"June 15 2000","the_city":"Barcelona","the_country":"Spain","the_venue":"Theatro Tivoli","lat":41.3850639,"lon":2.1734035},
  {"the_date":"June 17 2000","the_city":"Frejus","the_country":"France","the_venue":"Arenes de Frejus","lat":43.43315200000001,"lon":6.737034},
  {"the_date":"June 18 2000","the_city":"Milan","the_country":"Italy","the_venue":"Villa Reale","lat":45.4654219,"lon":9.1859243},
  {"the_date":"June 19 2000","the_city":"Milan","the_country":"Italy","the_venue":"Villa Reale","lat":45.4654219,"lon":9.1859243},
  {"the_date":"June 21 2000","the_city":"Florence","the_country":"Italy","the_venue":"Piazza Santa Croce","lat":43.7710332,"lon":11.2480006},
  {"the_date":"June 22 2000","the_city":"Florence","the_country":"Italy","the_venue":"Piazza Santa Croce","lat":43.7710332,"lon":11.2480006},
  {"the_date":"June 25 2000","the_city":"Thessaloniki","the_country":"Greece","the_venue":"Earth Theatre","lat":40.6400629,"lon":22.9444191},
  {"the_date":"June 26 2000","the_city":"Athens","the_country":"Greece","the_venue":"Lycabetus Theatre","lat":37.983917,"lon":23.7293599},
  {"the_date":"June 27 2000","the_city":"Athens","the_country":"Greece","the_venue":"Lycabetus Theatre","lat":37.983917,"lon":23.7293599},
  {"the_date":"June 30 2000","the_city":"Paris","the_country":"France","the_venue":"Le Grand Rex","lat":48.856614,"lon":2.3522219},
  {"the_date":"July 01 2000","the_city":"London","the_country":"England","the_venue":"Royal Festival Hall","lat":51.5073509,"lon":-0.1277583},
  {"the_date":"July 03 2000","the_city":"Berlin","the_country":"Germany","the_venue":"Großer Sendesaal des SFB","lat":52.52000659999999,"lon":13.404954},
  {"the_date":"July 04 2000","the_city":"Berlin","the_country":"Germany","the_venue":"Großer Sendesaal des SFB","lat":52.52000659999999,"lon":13.404954},
  {"the_date":"July 07 2000","the_city":"Tel Aviv","the_country":"Israel","the_venue":"Cinerama","lat":32.0852999,"lon":34.78176759999999},
  {"the_date":"July 08 2000","the_city":"Tel Aviv","the_country":"Israel","the_venue":"Cinerama","lat":32.0852999,"lon":34.78176759999999},
  {"the_date":"July 09 2000","the_city":"Caesaria","the_country":"Israel","the_venue":"Old Roman Amphitheatre","lat":32.519016,"lon":34.904544},
  {"the_date":"September 01 2000","the_city":"Newport","the_country":"South Wales","the_venue":"Tredegar House","lat":51.584151,"lon":-2.997664},
  {"the_date":"September 02 2000","the_city":"Newport","the_country":"South Wales","the_venue":"Tredegar House","lat":51.584151,"lon":-2.997664},
  {"the_date":"September 07 2000","the_city":"Copenhagen","the_country":"Denmark","the_venue":"football field near Valby-Hallen","lat":55.6760968,"lon":12.5683371},
  {"the_date":"September 08 2000","the_city":"Copenhagen","the_country":"Denmark","the_venue":"football field near Valby-Hallen","lat":55.6760968,"lon":12.5683371},
  {"the_date":"September 11 2000","the_city":"Werchter","the_country":"Belgium","the_venue":"Werchter Festival Site","lat":50.97278000000001,"lon":4.70007},
  {"the_date":"September 12 2000","the_city":"Werchter","the_country":"Belgium","the_venue":"Werchter Festival Site","lat":50.97278000000001,"lon":4.70007},
  {"the_date":"September 15 2000","the_city":"Nijmegen","the_country":"Netherlands","the_venue":"Goffertpark","lat":51.8125626,"lon":5.8372264},
  {"the_date":"September 16 2000","the_city":"Nijmegen","the_country":"Netherlands","the_venue":"Goffertpark","lat":51.8125626,"lon":5.8372264},
  {"the_date":"September 18 2000","the_city":"Paris","the_country":"France","the_venue":"Canal+ 'Nulle Part Ailleurs'","lat":48.856614,"lon":2.3522219},
  {"the_date":"September 19 2000","the_city":"St Denis","the_country":"France","the_venue":"Stade de France","lat":48.936181,"lon":2.357443},
  {"the_date":"September 20 2000","the_city":"St Denis","the_country":"France","the_venue":"Stade de France","lat":48.936181,"lon":2.357443},
  {"the_date":"September 23 2000","the_city":"London","the_country":"England","the_venue":"Victoria Park, Tower Hamlets","lat":51.5073509,"lon":-0.1277583},
  {"the_date":"September 24 2000","the_city":"London","the_country":"England","the_venue":"Victoria Park, Tower Hamlets","lat":51.5073509,"lon":-0.1277583},
  {"the_date":"September 25 2000","the_city":"London","the_country":"England","the_venue":"Victoria Park, Tower Hamlets","lat":51.5073509,"lon":-0.1277583},
  {"the_date":"September 28 2000","the_city":"Glasgow","the_country":"Scotland","the_venue":"Glasgow Green","lat":55.864237,"lon":-4.251806},
  {"the_date":"September 29 2000","the_city":"Glasgow","the_country":"Scotland","the_venue":"Glasgow Green","lat":55.864237,"lon":-4.251806},
  {"the_date":"October 01 2000","the_city":"Cheshire, Warrington","the_country":"England","the_venue":"Victoria Park","lat":53.3900441,"lon":-2.5969501},
  {"the_date":"October 02 2000","the_city":"Cheshire, Warrington","the_country":"England","the_venue":"Victoria Park","lat":53.3900441,"lon":-2.5969501},
  {"the_date":"October 03 2000","the_city":"Cheshire, Warrington","the_country":"England","the_venue":"Victoria Park","lat":53.3900441,"lon":-2.5969501},
  {"the_date":"October 06 2000","the_city":"Kildare","the_country":"Ireland","the_venue":"Punchestown Race Course","lat":53.1589342,"lon":-6.9095683},
  {"the_date":"October 07 2000","the_city":"Kildare","the_country":"Ireland","the_venue":"Punchestown Race Course","lat":53.1589342,"lon":-6.9095683},
  {"the_date":"October 08 2000","the_city":"Kildare","the_country":"Ireland","the_venue":"Punchestown Race Course","lat":53.1589342,"lon":-6.9095683},
  {"the_date":"October 11 2000","the_city":"New York, NY","the_country":"USA","the_venue":"Roseland Ballroom","lat":40.7127837,"lon":-74.0059413},
  {"the_date":"October 14 2000","the_city":"New York City","the_country":"USA","the_venue":"Saturday Night Live","lat":40.7127837,"lon":-74.0059413},
  {"the_date":"October 17 2000","the_city":"Toronto","the_country":"Canada","the_venue":"Air Canada Centre","lat":43.653226,"lon":-79.3831843},
  {"the_date":"October 20 2000","the_city":"Los Angeles, CA","the_country":"USA","the_venue":"Greek Theatre","lat":34.0522342,"lon":-118.2436849},
  {"the_date":"April 28 2001","the_city":"Paris","the_country":"France","the_venue":"Canal+ Studios","lat":48.856614,"lon":2.3522219},
  {"the_date":"May 26 2001","the_city":"Bilbao","the_country":"Spain","the_venue":"Bull Ring","lat":43.2630126,"lon":-2.9349852},
  {"the_date":"May 28 2001","the_city":"Vaison la Romaine","the_country":"France","the_venue":"Theatre Antique","lat":44.240968,"lon":5.075197999999999},
  {"the_date":"May 30 2001","the_city":"Verona","the_country":"Italy","the_venue":"Verona Arena","lat":45.43838419999999,"lon":10.9916215},